[{"_id":{"$oid":"69e9bb519781f85ddaf3d22f"},"name":"Mallawi","__v":0,"coordinates":{"type":"Point","coordinates":[30.8418,27.7314]},"createdAt":{"$date":"2026-04-23T06:25:21.769Z"},"location":"Minya","status":"active","updatedAt":{"$date":"2026-04-25T16:48:47.596Z"}},{"_id":{"$oid":"69e9bb519781f85ddaf3d230"},"name":"Deir Mawas","__v":0,"coordinates":{"type":"Point","coordinates":[30.9407,27.6415]},"createdAt":{"$date":"2026-04-23T06:25:21.769Z"},"location":"Minya","status":"active","updatedAt":{"$date":"2026-04-23T06:25:21.769Z"}},{"_id":{"$oid":"69e9bb519781f85ddaf3d231"},"name":"Assiut","__v":0,"coordinates":{"type":"Point","coordinates":[31.1829,27.1809]},"createdAt":{"$date":"2026-04-23T06:25:21.769Z"},"location":"Assiut","status":"active","updatedAt":{"$date":"2026-04-23T06:25:21.769Z"}},{"_id":{"$oid":"69e9bb519781f85ddaf3d232"},"name":"Abnoub","__v":0,"coordinates":{"type":"Point","coordinates":[31.1518,27.2696]},"createdAt":{"$date":"2026-04-23T06:25:21.769Z"},"location":"Assiut","status":"active","updatedAt":{"$date":"2026-04-23T06:25:21.769Z"}},{"_id":{"$oid":"69e9bb519781f85ddaf3d233"},"name":"Manfalut","__v":0,"coordinates":{"type":"Point","coordinates":[30.9704,27.3104]},"createdAt":{"$date":"2026-04-23T06:25:21.769Z"},"location":"Assiut","status":"active","updatedAt":{"$date":"2026-04-23T06:25:21.769Z"}},{"_id":{"$oid":"69e9bb519781f85ddaf3d234"},"name":"Abu Tig","__v":0,"coordinates":{"type":"Point","coordinates":[31.319,26.7683]},"createdAt":{"$date":"2026-04-23T06:25:21.769Z"},"location":"Assiut","status":"active","updatedAt":{"$date":"2026-04-23T06:25:21.769Z"}},{"_id":{"$oid":"69e9bb519781f85ddaf3d235"},"name":"Tahta","__v":0,"coordinates":{"type":"Point","coordinates":[31.5021,26.7693]},"createdAt":{"$date":"2026-04-23T06:25:21.769Z"},"location":"Sohag","status":"active","updatedAt":{"$date":"2026-04-23T06:25:21.769Z"}},{"_id":{"$oid":"69e9bb519781f85ddaf3d236"},"name":"Sohag","__v":0,"coordinates":{"type":"Point","coordinates":[31.6957,26.5591]},"createdAt":{"$date":"2026-04-23T06:25:21.769Z"},"location":"Sohag","status":"active","updatedAt":{"$date":"2026-04-23T06:25:21.769Z"}},{"_id":{"$oid":"69e9bb519781f85ddaf3d237"},"name":"Akhmim","__v":0,"coordinates":{"type":"Point","coordinates":[31.7461,26.5622]},"createdAt":{"$date":"2026-04-23T06:25:21.769Z"},"location":"Sohag","status":"active","updatedAt":{"$date":"2026-04-23T06:25:21.769Z"}},{"_id":{"$oid":"69e9bb519781f85ddaf3d238"},"name":"El-Maragha","__v":0,"coordinates":{"type":"Point","coordinates":[31.8436,26.7029]},"createdAt":{"$date":"2026-04-23T06:25:21.769Z"},"location":"Sohag","status":"active","updatedAt":{"$date":"2026-04-23T06:25:21.769Z"}},{"_id":{"$oid":"69e9bb519781f85ddaf3d239"},"name":"Girga","__v":0,"coordinates":{"type":"Point","coordinates":[31.8947,26.3385]},"createdAt":{"$date":"2026-04-23T06:25:21.769Z"},"location":"Sohag","status":"active","updatedAt":{"$date":"2026-04-23T06:25:21.769Z"}},{"_id":{"$oid":"69e9bb519781f85ddaf3d23a"},"name":"Nag Hammadi","__v":0,"coordinates":{"type":"Point","coordinates":[32.2425,26.0495]},"createdAt":{"$date":"2026-04-23T06:25:21.769Z"},"location":"Qena","status":"active","updatedAt":{"$date":"2026-04-23T06:25:21.769Z"}},{"_id":{"$oid":"69e9bb519781f85ddaf3d23b"},"name":"Qena","__v":0,"coordinates":{"type":"Point","coordinates":[32.716,26.1551]},"createdAt":{"$date":"2026-04-23T06:25:21.769Z"},"location":"Qena","status":"active","updatedAt":{"$date":"2026-04-23T06:25:21.769Z"}},{"_id":{"$oid":"69e9bb519781f85ddaf3d23c"},"name":"Qus","__v":0,"coordinates":{"type":"Point","coordinates":[32.7629,25.9153]},"createdAt":{"$date":"2026-04-23T06:25:21.769Z"},"location":"Qena","status":"active","updatedAt":{"$date":"2026-04-23T06:25:21.769Z"}},{"_id":{"$oid":"69e9bb519781f85ddaf3d23d"},"name":"Luxor","__v":0,"coordinates":{"type":"Point","coordinates":[32.6396,25.6872]},"createdAt":{"$date":"2026-04-23T06:25:21.769Z"},"location":"Luxor","status":"active","updatedAt":{"$date":"2026-04-23T06:25:21.769Z"}},{"_id":{"$oid":"69e9bb519781f85ddaf3d23e"},"name":"Esna","__v":0,"coordinates":{"type":"Point","coordinates":[32.5539,25.2934]},"createdAt":{"$date":"2026-04-23T06:25:21.769Z"},"location":"Luxor","status":"active","updatedAt":{"$date":"2026-04-23T06:25:21.769Z"}},{"_id":{"$oid":"69e9bb519781f85ddaf3d23f"},"name":"Edfu","__v":0,"coordinates":{"type":"Point","coordinates":[32.873,24.9785]},"createdAt":{"$date":"2026-04-23T06:25:21.769Z"},"location":"Aswan","status":"active","updatedAt":{"$date":"2026-04-23T06:25:21.769Z"}},{"_id":{"$oid":"69e9bb519781f85ddaf3d240"},"name":"Kom Ombo","__v":0,"coordinates":{"type":"Point","coordinates":[32.9499,24.4707]},"createdAt":{"$date":"2026-04-23T06:25:21.769Z"},"location":"Aswan","status":"active","updatedAt":{"$date":"2026-04-23T06:25:21.769Z"}},{"_id":{"$oid":"69e9bb519781f85ddaf3d241"},"name":"Aswan","__v":0,"coordinates":{"type":"Point","coordinates":[32.8998,24.0889]},"createdAt":{"$date":"2026-04-23T06:25:21.769Z"},"location":"Aswan","status":"active","updatedAt":{"$date":"2026-04-23T06:25:21.769Z"}},{"_id":{"$oid":"69e9bb519781f85ddaf3d242"},"name":"New Valley","__v":0,"coordinates":{"type":"Point","coordinates":[28.979,25.4514]},"createdAt":{"$date":"2026-04-23T06:25:21.769Z"},"location":"New Valley","status":"active","updatedAt":{"$date":"2026-04-23T06:25:21.769Z"}},{"_id":{"$oid":"69e9bb519781f85ddaf3d243"},"name":"Marsa Matruh","__v":0,"coordinates":{"type":"Point","coordinates":[27.2373,31.3543]},"createdAt":{"$date":"2026-04-23T06:25:21.769Z"},"location":"Matruh","status":"active","updatedAt":{"$date":"2026-04-23T06:25:21.769Z"}},{"_id":{"$oid":"69e9bb519781f85ddaf3d244"},"name":"El Alamein","__v":0,"coordinates":{"type":"Point","coordinates":[28.9457,30.8308]},"createdAt":{"$date":"2026-04-23T06:25:21.769Z"},"location":"Matruh","status":"active","updatedAt":{"$date":"2026-04-23T06:25:21.769Z"}},{"_id":{"$oid":"69e9bb519781f85ddaf3d245"},"name":"Borg El Arab","__v":0,"coordinates":{"type":"Point","coordinates":[29.5795,30.8856]},"createdAt":{"$date":"2026-04-23T06:25:21.769Z"},"location":"Alexandria","status":"active","updatedAt":{"$date":"2026-04-23T06:25:21.769Z"}},{"_id":{"$oid":"69e9bb519781f85ddaf3d246"},"name":"10th of Ramadan","__v":0,"coordinates":{"type":"Point","coordinates":[31.745,30.3065]},"createdAt":{"$date":"2026-04-23T06:25:21.769Z"},"location":"Sharqia","status":"active","updatedAt":{"$date":"2026-04-23T06:25:21.769Z"}},{"_id":{"$oid":"69e9bb519781f85ddaf3d247"},"name":"Sadat City","__v":0,"coordinates":{"type":"Point","coordinates":[30.5352,30.3628]},"createdAt":{"$date":"2026-04-23T06:25:21.769Z"},"location":"Monufia","status":"active","updatedAt":{"$date":"2026-04-23T06:25:21.769Z"}},{"_id":{"$oid":"69e9bbf49781f85ddaf3d248"},"name":"Cairo Ramses","__v":0,"coordinates":{"type":"Point","coordinates":[31.2357,30.0444]},"createdAt":{"$date":"2026-04-23T06:28:04.021Z"},"location":"Cairo","status":"active","updatedAt":{"$date":"2026-04-23T06:28:04.021Z"}},{"_id":{"$oid":"69e9bbf49781f85ddaf3d249"},"name":"Bashtil","__v":0,"coordinates":{"type":"Point","coordinates":[31.2001,30.065]},"createdAt":{"$date":"2026-04-23T06:28:04.021Z"},"location":"Giza","status":"active","updatedAt":{"$date":"2026-04-23T06:28:04.021Z"}},{"_id":{"$oid":"69e9bbf49781f85ddaf3d24a"},"name":"Giza","__v":0,"coordinates":{"type":"Point","coordinates":[31.2118,30.0081]},"createdAt":{"$date":"2026-04-23T06:28:04.021Z"},"location":"Giza","status":"active","updatedAt":{"$date":"2026-04-23T06:28:04.021Z"}},{"_id":{"$oid":"69e9bbf49781f85ddaf3d24b"},"name":"Shubra El-Kheima","__v":0,"coordinates":{"type":"Point","coordinates":[31.2603,30.1241]},"createdAt":{"$date":"2026-04-23T06:28:04.021Z"},"location":"Qalyubia","status":"active","updatedAt":{"$date":"2026-04-23T06:28:04.021Z"}},{"_id":{"$oid":"69e9bbf49781f85ddaf3d24c"},"name":"Qalyub","__v":0,"coordinates":{"type":"Point","coordinates":[31.2056,30.1801]},"createdAt":{"$date":"2026-04-23T06:28:04.021Z"},"location":"Qalyubia","status":"active","updatedAt":{"$date":"2026-04-23T06:28:04.021Z"}},{"_id":{"$oid":"69e9bbf49781f85ddaf3d24d"},"name":"Benha","__v":0,"coordinates":{"type":"Point","coordinates":[31.1848,30.4668]},"createdAt":{"$date":"2026-04-23T06:28:04.021Z"},"location":"Qalyubia","status":"active","updatedAt":{"$date":"2026-04-23T06:28:04.021Z"}},{"_id":{"$oid":"69e9bbf49781f85ddaf3d24e"},"name":"Tukh","__v":0,"coordinates":{"type":"Point","coordinates":[31.2017,30.3548]},"createdAt":{"$date":"2026-04-23T06:28:04.021Z"},"location":"Qalyubia","status":"active","updatedAt":{"$date":"2026-04-23T06:28:04.021Z"}},{"_id":{"$oid":"69e9bbf49781f85ddaf3d24f"},"name":"Quesna","__v":0,"coordinates":{"type":"Point","coordinates":[31.1496,30.5676]},"createdAt":{"$date":"2026-04-23T06:28:04.021Z"},"location":"Monufia","status":"active","updatedAt":{"$date":"2026-04-23T06:28:04.021Z"}},{"_id":{"$oid":"69e9bbf49781f85ddaf3d250"},"name":"Shebin El-Kom","__v":0,"coordinates":{"type":"Point","coordinates":[31.009,30.5549]},"createdAt":{"$date":"2026-04-23T06:28:04.021Z"},"location":"Monufia","status":"active","updatedAt":{"$date":"2026-04-23T06:28:04.021Z"}},{"_id":{"$oid":"69e9bbf49781f85ddaf3d251"},"name":"Tanta","__v":0,"coordinates":{"type":"Point","coordinates":[31.0039,30.7865]},"createdAt":{"$date":"2026-04-23T06:28:04.021Z"},"location":"Gharbia","status":"active","updatedAt":{"$date":"2026-04-23T06:28:04.021Z"}},{"_id":{"$oid":"69e9bbf49781f85ddaf3d252"},"name":"Kafr El-Zayat","__v":0,"coordinates":{"type":"Point","coordinates":[30.8188,30.8248]},"createdAt":{"$date":"2026-04-23T06:28:04.021Z"},"location":"Gharbia","status":"active","updatedAt":{"$date":"2026-04-23T06:28:04.021Z"}},{"_id":{"$oid":"69e9bbf49781f85ddaf3d253"},"name":"Zefta","__v":0,"coordinates":{"type":"Point","coordinates":[31.2403,30.7145]},"createdAt":{"$date":"2026-04-23T06:28:04.021Z"},"location":"Gharbia","status":"active","updatedAt":{"$date":"2026-04-23T06:28:04.021Z"}},{"_id":{"$oid":"69e9bbf49781f85ddaf3d254"},"name":"El-Mahalla El-Kubra","__v":0,"coordinates":{"type":"Point","coordinates":[31.1669,30.9698]},"createdAt":{"$date":"2026-04-23T06:28:04.021Z"},"location":"Gharbia","status":"active","updatedAt":{"$date":"2026-04-23T06:28:04.021Z"}},{"_id":{"$oid":"69e9bbf49781f85ddaf3d255"},"name":"Mansoura","__v":0,"coordinates":{"type":"Point","coordinates":[31.3785,31.0409]},"createdAt":{"$date":"2026-04-23T06:28:04.021Z"},"location":"Dakahlia","status":"active","updatedAt":{"$date":"2026-04-23T06:28:04.021Z"}},{"_id":{"$oid":"69e9bbf49781f85ddaf3d256"},"name":"Talkha","__v":0,"coordinates":{"type":"Point","coordinates":[31.3779,31.0551]},"createdAt":{"$date":"2026-04-23T06:28:04.021Z"},"location":"Dakahlia","status":"active","updatedAt":{"$date":"2026-04-23T06:28:04.021Z"}},{"_id":{"$oid":"69e9bbf49781f85ddaf3d257"},"name":"Damietta","__v":0,"coordinates":{"type":"Point","coordinates":[31.8144,31.4165]},"createdAt":{"$date":"2026-04-23T06:28:04.021Z"},"location":"Damietta","status":"active","updatedAt":{"$date":"2026-04-23T06:28:04.021Z"}},{"_id":{"$oid":"69e9bbf49781f85ddaf3d258"},"name":"Alexandria Misr","__v":0,"coordinates":{"type":"Point","coordinates":[29.9187,31.2001]},"createdAt":{"$date":"2026-04-23T06:28:04.021Z"},"location":"Alexandria","status":"active","updatedAt":{"$date":"2026-04-23T06:28:04.021Z"}},{"_id":{"$oid":"69e9bbf49781f85ddaf3d259"},"name":"Sidi Gaber","__v":0,"coordinates":{"type":"Point","coordinates":[29.942,31.2156]},"createdAt":{"$date":"2026-04-23T06:28:04.021Z"},"location":"Alexandria","status":"active","updatedAt":{"$date":"2026-04-23T06:28:04.021Z"}},{"_id":{"$oid":"69e9bbf49781f85ddaf3d25a"},"name":"Damanhour","__v":0,"coordinates":{"type":"Point","coordinates":[30.4682,31.0341]},"createdAt":{"$date":"2026-04-23T06:28:04.021Z"},"location":"Beheira","status":"active","updatedAt":{"$date":"2026-04-23T06:28:04.021Z"}},{"_id":{"$oid":"69e9bbf49781f85ddaf3d25b"},"name":"Kafr El-Dawwar","__v":0,"coordinates":{"type":"Point","coordinates":[30.1291,31.1339]},"createdAt":{"$date":"2026-04-23T06:28:04.021Z"},"location":"Beheira","status":"active","updatedAt":{"$date":"2026-04-23T06:28:04.021Z"}},{"_id":{"$oid":"69e9bbf49781f85ddaf3d25c"},"name":"Desouk","__v":0,"coordinates":{"type":"Point","coordinates":[30.6455,31.1325]},"createdAt":{"$date":"2026-04-23T06:28:04.021Z"},"location":"Kafr El Sheikh","status":"active","updatedAt":{"$date":"2026-04-23T06:28:04.021Z"}},{"_id":{"$oid":"69e9bbf49781f85ddaf3d25d"},"name":"Kafr El Sheikh","__v":0,"coordinates":{"type":"Point","coordinates":[30.9401,31.1117]},"createdAt":{"$date":"2026-04-23T06:28:04.021Z"},"location":"Kafr El Sheikh","status":"active","updatedAt":{"$date":"2026-04-23T06:28:04.021Z"}},{"_id":{"$oid":"69e9bbf49781f85ddaf3d25e"},"name":"Zagazig","__v":0,"coordinates":{"type":"Point","coordinates":[31.502,30.5877]},"createdAt":{"$date":"2026-04-23T06:28:04.021Z"},"location":"Sharqia","status":"active","updatedAt":{"$date":"2026-04-23T06:28:04.021Z"}},{"_id":{"$oid":"69e9bbf49781f85ddaf3d25f"},"name":"Belbeis","__v":0,"coordinates":{"type":"Point","coordinates":[31.5607,30.4204]},"createdAt":{"$date":"2026-04-23T06:28:04.021Z"},"location":"Sharqia","status":"active","updatedAt":{"$date":"2026-04-23T06:28:04.021Z"}},{"_id":{"$oid":"69e9bbf49781f85ddaf3d260"},"name":"Ismailia","__v":0,"coordinates":{"type":"Point","coordinates":[32.2715,30.5965]},"createdAt":{"$date":"2026-04-23T06:28:04.021Z"},"location":"Ismailia","status":"active","updatedAt":{"$date":"2026-04-23T06:28:04.021Z"}},{"_id":{"$oid":"69e9bbf49781f85ddaf3d261"},"name":"Port Said","__v":0,"coordinates":{"type":"Point","coordinates":[32.3019,31.2653]},"createdAt":{"$date":"2026-04-23T06:28:04.021Z"},"location":"Port Said","status":"active","updatedAt":{"$date":"2026-04-23T06:28:04.021Z"}},{"_id":{"$oid":"69e9bbf49781f85ddaf3d262"},"name":"Suez","__v":0,"coordinates":{"type":"Point","coordinates":[32.5498,29.9668]},"createdAt":{"$date":"2026-04-23T06:28:04.021Z"},"location":"Suez","status":"active","updatedAt":{"$date":"2026-04-23T06:28:04.021Z"}},{"_id":{"$oid":"69e9bbf49781f85ddaf3d263"},"name":"Fayoum","__v":0,"coordinates":{"type":"Point","coordinates":[30.8418,29.3084]},"createdAt":{"$date":"2026-04-23T06:28:04.021Z"},"location":"Fayoum","status":"active","updatedAt":{"$date":"2026-04-23T06:28:04.021Z"}},{"_id":{"$oid":"69e9bbf49781f85ddaf3d264"},"name":"Beni Suef","__v":0,"coordinates":{"type":"Point","coordinates":[31.0994,29.0661]},"createdAt":{"$date":"2026-04-23T06:28:04.021Z"},"location":"Beni Suef","status":"active","updatedAt":{"$date":"2026-04-23T06:28:04.021Z"}},{"_id":{"$oid":"69e9bbf49781f85ddaf3d265"},"name":"Minya","__v":0,"coordinates":{"type":"Point","coordinates":[30.7444,28.1099]},"createdAt":{"$date":"2026-04-23T06:28:04.021Z"},"location":"Minya","status":"active","updatedAt":{"$date":"2026-04-23T06:28:04.021Z"}},{"_id":{"$oid":"69e9bc1f9781f85ddaf3d266"},"name":"Mallawi","__v":0,"coordinates":{"type":"Point","coordinates":[30.8418,27.7314]},"createdAt":{"$date":"2026-04-23T06:28:47.083Z"},"location":"Minya","status":"active","updatedAt":{"$date":"2026-04-23T06:28:47.083Z"}},{"_id":{"$oid":"69e9bc1f9781f85ddaf3d267"},"name":"Deir Mawas","__v":0,"coordinates":{"type":"Point","coordinates":[30.9407,27.6415]},"createdAt":{"$date":"2026-04-23T06:28:47.083Z"},"location":"Minya","status":"active","updatedAt":{"$date":"2026-04-23T06:28:47.083Z"}},{"_id":{"$oid":"69e9bc1f9781f85ddaf3d268"},"name":"Assiut","__v":0,"coordinates":{"type":"Point","coordinates":[31.1829,27.1809]},"createdAt":{"$date":"2026-04-23T06:28:47.083Z"},"location":"Assiut","status":"active","updatedAt":{"$date":"2026-04-23T06:28:47.083Z"}},{"_id":{"$oid":"69e9bc1f9781f85ddaf3d269"},"name":"Abnoub","__v":0,"coordinates":{"type":"Point","coordinates":[31.1518,27.2696]},"createdAt":{"$date":"2026-04-23T06:28:47.083Z"},"location":"Assiut","status":"active","updatedAt":{"$date":"2026-04-23T06:28:47.083Z"}},{"_id":{"$oid":"69e9bc1f9781f85ddaf3d26a"},"name":"Manfalut","__v":0,"coordinates":{"type":"Point","coordinates":[30.9704,27.3104]},"createdAt":{"$date":"2026-04-23T06:28:47.083Z"},"location":"Assiut","status":"active","updatedAt":{"$date":"2026-04-23T06:28:47.083Z"}},{"_id":{"$oid":"69e9bc1f9781f85ddaf3d26b"},"name":"Abu Tig","__v":0,"coordinates":{"type":"Point","coordinates":[31.319,26.7683]},"createdAt":{"$date":"2026-04-23T06:28:47.083Z"},"location":"Assiut","status":"active","updatedAt":{"$date":"2026-04-23T06:28:47.083Z"}},{"_id":{"$oid":"69e9bc1f9781f85ddaf3d26c"},"name":"Tahta","__v":0,"coordinates":{"type":"Point","coordinates":[31.5021,26.7693]},"createdAt":{"$date":"2026-04-23T06:28:47.083Z"},"location":"Sohag","status":"active","updatedAt":{"$date":"2026-04-23T06:28:47.083Z"}},{"_id":{"$oid":"69e9bc1f9781f85ddaf3d26d"},"name":"Sohag","__v":0,"coordinates":{"type":"Point","coordinates":[31.6957,26.5591]},"createdAt":{"$date":"2026-04-23T06:28:47.083Z"},"location":"Sohag","status":"active","updatedAt":{"$date":"2026-04-23T06:28:47.083Z"}},{"_id":{"$oid":"69e9bc1f9781f85ddaf3d26e"},"name":"Akhmim","__v":0,"coordinates":{"type":"Point","coordinates":[31.7461,26.5622]},"createdAt":{"$date":"2026-04-23T06:28:47.083Z"},"location":"Sohag","status":"active","updatedAt":{"$date":"2026-04-23T06:28:47.083Z"}},{"_id":{"$oid":"69e9bc1f9781f85ddaf3d26f"},"name":"El-Maragha","__v":0,"coordinates":{"type":"Point","coordinates":[31.8436,26.7029]},"createdAt":{"$date":"2026-04-23T06:28:47.083Z"},"location":"Sohag","status":"active","updatedAt":{"$date":"2026-04-23T06:28:47.083Z"}},{"_id":{"$oid":"69e9bc1f9781f85ddaf3d270"},"name":"Girga","__v":0,"coordinates":{"type":"Point","coordinates":[31.8947,26.3385]},"createdAt":{"$date":"2026-04-23T06:28:47.083Z"},"location":"Sohag","status":"active","updatedAt":{"$date":"2026-04-23T06:28:47.083Z"}},{"_id":{"$oid":"69e9bc1f9781f85ddaf3d271"},"name":"Nag Hammadi","__v":0,"coordinates":{"type":"Point","coordinates":[32.2425,26.0495]},"createdAt":{"$date":"2026-04-23T06:28:47.083Z"},"location":"Qena","status":"active","updatedAt":{"$date":"2026-04-23T06:28:47.083Z"}},{"_id":{"$oid":"69e9bc1f9781f85ddaf3d272"},"name":"Qena","__v":0,"coordinates":{"type":"Point","coordinates":[32.716,26.1551]},"createdAt":{"$date":"2026-04-23T06:28:47.083Z"},"location":"Qena","status":"active","updatedAt":{"$date":"2026-04-23T06:28:47.083Z"}},{"_id":{"$oid":"69e9bc1f9781f85ddaf3d273"},"name":"Qus","__v":0,"coordinates":{"type":"Point","coordinates":[32.7629,25.9153]},"createdAt":{"$date":"2026-04-23T06:28:47.083Z"},"location":"Qena","status":"active","updatedAt":{"$date":"2026-04-23T06:28:47.083Z"}},{"_id":{"$oid":"69e9bc1f9781f85ddaf3d274"},"name":"Luxor","__v":0,"coordinates":{"type":"Point","coordinates":[32.6396,25.6872]},"createdAt":{"$date":"2026-04-23T06:28:47.083Z"},"location":"Luxor","status":"active","updatedAt":{"$date":"2026-04-23T06:28:47.083Z"}},{"_id":{"$oid":"69e9bc1f9781f85ddaf3d275"},"name":"Esna","__v":0,"coordinates":{"type":"Point","coordinates":[32.5539,25.2934]},"createdAt":{"$date":"2026-04-23T06:28:47.083Z"},"location":"Luxor","status":"active","updatedAt":{"$date":"2026-04-23T06:28:47.083Z"}},{"_id":{"$oid":"69e9bc1f9781f85ddaf3d276"},"name":"Edfu","__v":0,"coordinates":{"type":"Point","coordinates":[32.873,24.9785]},"createdAt":{"$date":"2026-04-23T06:28:47.083Z"},"location":"Aswan","status":"active","updatedAt":{"$date":"2026-04-23T06:28:47.083Z"}},{"_id":{"$oid":"69e9bc1f9781f85ddaf3d277"},"name":"Kom Ombo","__v":0,"coordinates":{"type":"Point","coordinates":[32.9499,24.4707]},"createdAt":{"$date":"2026-04-23T06:28:47.083Z"},"location":"Aswan","status":"active","updatedAt":{"$date":"2026-04-23T06:28:47.083Z"}},{"_id":{"$oid":"69e9bc1f9781f85ddaf3d278"},"name":"Aswan","__v":0,"coordinates":{"type":"Point","coordinates":[32.8998,24.0889]},"createdAt":{"$date":"2026-04-23T06:28:47.083Z"},"location":"Aswan","status":"active","updatedAt":{"$date":"2026-04-23T06:28:47.083Z"}},{"_id":{"$oid":"69e9bc1f9781f85ddaf3d279"},"name":"New Valley","__v":0,"coordinates":{"type":"Point","coordinates":[28.979,25.4514]},"createdAt":{"$date":"2026-04-23T06:28:47.083Z"},"location":"New Valley","status":"active","updatedAt":{"$date":"2026-04-23T06:28:47.083Z"}},{"_id":{"$oid":"69e9bc1f9781f85ddaf3d27a"},"name":"Marsa Matruh","__v":0,"coordinates":{"type":"Point","coordinates":[27.2373,31.3543]},"createdAt":{"$date":"2026-04-23T06:28:47.083Z"},"location":"Matruh","status":"active","updatedAt":{"$date":"2026-04-23T06:28:47.083Z"}},{"_id":{"$oid":"69e9bc1f9781f85ddaf3d27b"},"name":"El Alamein","__v":0,"coordinates":{"type":"Point","coordinates":[28.9457,30.8308]},"createdAt":{"$date":"2026-04-23T06:28:47.083Z"},"location":"Matruh","status":"active","updatedAt":{"$date":"2026-04-23T06:28:47.083Z"}},{"_id":{"$oid":"69e9bc1f9781f85ddaf3d27c"},"name":"Borg El Arab","__v":0,"coordinates":{"type":"Point","coordinates":[29.5795,30.8856]},"createdAt":{"$date":"2026-04-23T06:28:47.083Z"},"location":"Alexandria","status":"active","updatedAt":{"$date":"2026-04-23T06:28:47.083Z"}},{"_id":{"$oid":"69e9bc1f9781f85ddaf3d27d"},"name":"10th of Ramadan","__v":0,"coordinates":{"type":"Point","coordinates":[31.745,30.3065]},"createdAt":{"$date":"2026-04-23T06:28:47.083Z"},"location":"Sharqia","status":"active","updatedAt":{"$date":"2026-04-23T06:28:47.083Z"}},{"_id":{"$oid":"69e9bc1f9781f85ddaf3d27e"},"name":"Sadat City","__v":0,"coordinates":{"type":"Point","coordinates":[30.5352,30.3628]},"createdAt":{"$date":"2026-04-23T06:28:47.083Z"},"location":"Monufia","status":"active","updatedAt":{"$date":"2026-04-23T06:28:47.083Z"}},{"_id":{"$oid":"69e9bc7a9781f85ddaf3d27f"},"name":"Ain Shams","__v":0,"coordinates":{"type":"Point","coordinates":[31.319,30.131]},"createdAt":{"$date":"2026-04-23T06:30:18.374Z"},"location":"Cairo","status":"active","updatedAt":{"$date":"2026-04-23T06:30:18.374Z"}},{"_id":{"$oid":"69e9bc7a9781f85ddaf3d280"},"name":"Helwan","__v":0,"coordinates":{"type":"Point","coordinates":[31.3342,29.8414]},"createdAt":{"$date":"2026-04-23T06:30:18.374Z"},"location":"Cairo","status":"active","updatedAt":{"$date":"2026-04-23T06:30:18.374Z"}},{"_id":{"$oid":"69e9bc7a9781f85ddaf3d281"},"name":"Maadi","__v":0,"coordinates":{"type":"Point","coordinates":[31.2565,29.9602]},"createdAt":{"$date":"2026-04-23T06:30:18.374Z"},"location":"Cairo","status":"active","updatedAt":{"$date":"2026-04-23T06:30:18.374Z"}},{"_id":{"$oid":"69e9bc7a9781f85ddaf3d282"},"name":"Nasr City","__v":0,"coordinates":{"type":"Point","coordinates":[31.33,30.06]},"createdAt":{"$date":"2026-04-23T06:30:18.374Z"},"location":"Cairo","status":"active","updatedAt":{"$date":"2026-04-23T06:30:18.374Z"}},{"_id":{"$oid":"69e9bc7a9781f85ddaf3d283"},"name":"Obour","__v":0,"coordinates":{"type":"Point","coordinates":[31.4616,30.2288]},"createdAt":{"$date":"2026-04-23T06:30:18.374Z"},"location":"Qalyubia","status":"active","updatedAt":{"$date":"2026-04-23T06:30:18.374Z"}},{"_id":{"$oid":"69e9bc7a9781f85ddaf3d284"},"name":"Shibin El Qanater","__v":0,"coordinates":{"type":"Point","coordinates":[31.3228,30.3126]},"createdAt":{"$date":"2026-04-23T06:30:18.374Z"},"location":"Qalyubia","status":"active","updatedAt":{"$date":"2026-04-23T06:30:18.374Z"}},{"_id":{"$oid":"69e9bc7a9781f85ddaf3d285"},"name":"Banha East","__v":0,"coordinates":{"type":"Point","coordinates":[31.19,30.47]},"createdAt":{"$date":"2026-04-23T06:30:18.374Z"},"location":"Qalyubia","status":"active","updatedAt":{"$date":"2026-04-23T06:30:18.374Z"}},{"_id":{"$oid":"69e9bc7a9781f85ddaf3d286"},"name":"Mit Ghamr","__v":0,"coordinates":{"type":"Point","coordinates":[31.2609,30.7169]},"createdAt":{"$date":"2026-04-23T06:30:18.374Z"},"location":"Dakahlia","status":"active","updatedAt":{"$date":"2026-04-23T06:30:18.374Z"}},{"_id":{"$oid":"69e9bc7a9781f85ddaf3d287"},"name":"Aga","__v":0,"coordinates":{"type":"Point","coordinates":[31.2906,30.9416]},"createdAt":{"$date":"2026-04-23T06:30:18.374Z"},"location":"Dakahlia","status":"active","updatedAt":{"$date":"2026-04-23T06:30:18.374Z"}},{"_id":{"$oid":"69e9bc7a9781f85ddaf3d288"},"name":"Senbellawein","__v":0,"coordinates":{"type":"Point","coordinates":[31.5243,30.9387]},"createdAt":{"$date":"2026-04-23T06:30:18.374Z"},"location":"Dakahlia","status":"active","updatedAt":{"$date":"2026-04-23T06:30:18.374Z"}},{"_id":{"$oid":"69e9bc7a9781f85ddaf3d289"},"name":"Belqas","__v":0,"coordinates":{"type":"Point","coordinates":[31.2145,31.214]},"createdAt":{"$date":"2026-04-23T06:30:18.374Z"},"location":"Dakahlia","status":"active","updatedAt":{"$date":"2026-04-23T06:30:18.374Z"}},{"_id":{"$oid":"69e9bc7a9781f85ddaf3d28a"},"name":"Kafr Saqr","__v":0,"coordinates":{"type":"Point","coordinates":[31.6244,30.7936]},"createdAt":{"$date":"2026-04-23T06:30:18.374Z"},"location":"Sharqia","status":"active","updatedAt":{"$date":"2026-04-23T06:30:18.374Z"}},{"_id":{"$oid":"69e9bc7a9781f85ddaf3d28b"},"name":"Abu Hammad","__v":0,"coordinates":{"type":"Point","coordinates":[31.6842,30.5363]},"createdAt":{"$date":"2026-04-23T06:30:18.374Z"},"location":"Sharqia","status":"active","updatedAt":{"$date":"2026-04-23T06:30:18.374Z"}},{"_id":{"$oid":"69e9bc7a9781f85ddaf3d28c"},"name":"Faqus","__v":0,"coordinates":{"type":"Point","coordinates":[31.7995,30.7281]},"createdAt":{"$date":"2026-04-23T06:30:18.374Z"},"location":"Sharqia","status":"active","updatedAt":{"$date":"2026-04-23T06:30:18.374Z"}},{"_id":{"$oid":"69e9bc7a9781f85ddaf3d28d"},"name":"Abu Kebir","__v":0,"coordinates":{"type":"Point","coordinates":[31.6714,30.7257]},"createdAt":{"$date":"2026-04-23T06:30:18.374Z"},"location":"Sharqia","status":"active","updatedAt":{"$date":"2026-04-23T06:30:18.374Z"}},{"_id":{"$oid":"69e9bc7a9781f85ddaf3d28e"},"name":"Ras Sedr","__v":0,"coordinates":{"type":"Point","coordinates":[33.257,29.5937]},"createdAt":{"$date":"2026-04-23T06:30:18.374Z"},"location":"South Sinai","status":"active","updatedAt":{"$date":"2026-04-23T06:30:18.374Z"}},{"_id":{"$oid":"69e9bc7a9781f85ddaf3d28f"},"name":"El Tor","__v":0,"coordinates":{"type":"Point","coordinates":[33.6176,28.2417]},"createdAt":{"$date":"2026-04-23T06:30:18.374Z"},"location":"South Sinai","status":"active","updatedAt":{"$date":"2026-04-23T06:30:18.374Z"}},{"_id":{"$oid":"69e9bc7a9781f85ddaf3d290"},"name":"Hurghada","__v":0,"coordinates":{"type":"Point","coordinates":[33.8116,27.2579]},"createdAt":{"$date":"2026-04-23T06:30:18.374Z"},"location":"Red Sea","status":"active","updatedAt":{"$date":"2026-04-23T06:30:18.374Z"}},{"_id":{"$oid":"69e9bc7a9781f85ddaf3d291"},"name":"Safaga","__v":0,"coordinates":{"type":"Point","coordinates":[33.9365,26.7498]},"createdAt":{"$date":"2026-04-23T06:30:18.374Z"},"location":"Red Sea","status":"active","updatedAt":{"$date":"2026-04-23T06:30:18.374Z"}},{"_id":{"$oid":"69e9bc7a9781f85ddaf3d292"},"name":"Quseir","__v":0,"coordinates":{"type":"Point","coordinates":[34.2799,26.1043]},"createdAt":{"$date":"2026-04-23T06:30:18.374Z"},"location":"Red Sea","status":"active","updatedAt":{"$date":"2026-04-23T06:30:18.374Z"}},{"_id":{"$oid":"69e9bc9d9781f85ddaf3d293"},"name":"Rosetta","__v":0,"coordinates":{"type":"Point","coordinates":[30.4164,31.4046]},"createdAt":{"$date":"2026-04-23T06:30:53.478Z"},"location":"Beheira","status":"active","updatedAt":{"$date":"2026-04-23T06:30:53.478Z"}},{"_id":{"$oid":"69e9bc9d9781f85ddaf3d294"},"name":"Abu Hummus","__v":0,"coordinates":{"type":"Point","coordinates":[30.3139,30.7613]},"createdAt":{"$date":"2026-04-23T06:30:53.478Z"},"location":"Beheira","status":"active","updatedAt":{"$date":"2026-04-23T06:30:53.478Z"}},{"_id":{"$oid":"69e9bc9d9781f85ddaf3d295"},"name":"Itay El Barud","__v":0,"coordinates":{"type":"Point","coordinates":[30.8796,30.8901]},"createdAt":{"$date":"2026-04-23T06:30:53.478Z"},"location":"Beheira","status":"active","updatedAt":{"$date":"2026-04-23T06:30:53.478Z"}},{"_id":{"$oid":"69e9bc9d9781f85ddaf3d296"},"name":"Shubrakhit","__v":0,"coordinates":{"type":"Point","coordinates":[30.703,31.027]},"createdAt":{"$date":"2026-04-23T06:30:53.478Z"},"location":"Beheira","status":"active","updatedAt":{"$date":"2026-04-23T06:30:53.478Z"}},{"_id":{"$oid":"69e9bc9d9781f85ddaf3d297"},"name":"Kom Hamada","__v":0,"coordinates":{"type":"Point","coordinates":[30.7614,30.7618]},"createdAt":{"$date":"2026-04-23T06:30:53.478Z"},"location":"Beheira","status":"active","updatedAt":{"$date":"2026-04-23T06:30:53.478Z"}},{"_id":{"$oid":"69e9bc9d9781f85ddaf3d298"},"name":"Edko","__v":0,"coordinates":{"type":"Point","coordinates":[30.3,31.307]},"createdAt":{"$date":"2026-04-23T06:30:53.478Z"},"location":"Beheira","status":"active","updatedAt":{"$date":"2026-04-23T06:30:53.478Z"}},{"_id":{"$oid":"69e9bc9d9781f85ddaf3d299"},"name":"Biyala","__v":0,"coordinates":{"type":"Point","coordinates":[31.2054,31.159]},"createdAt":{"$date":"2026-04-23T06:30:53.478Z"},"location":"Kafr El Sheikh","status":"active","updatedAt":{"$date":"2026-04-23T06:30:53.478Z"}},{"_id":{"$oid":"69e9bc9d9781f85ddaf3d29a"},"name":"Baltim","__v":0,"coordinates":{"type":"Point","coordinates":[31.5556,31.0918]},"createdAt":{"$date":"2026-04-23T06:30:53.478Z"},"location":"Kafr El Sheikh","status":"active","updatedAt":{"$date":"2026-04-23T06:30:53.478Z"}},{"_id":{"$oid":"69e9bc9d9781f85ddaf3d29b"},"name":"Sidi Salem","__v":0,"coordinates":{"type":"Point","coordinates":[31.2718,31.2746]},"createdAt":{"$date":"2026-04-23T06:30:53.478Z"},"location":"Kafr El Sheikh","status":"active","updatedAt":{"$date":"2026-04-23T06:30:53.478Z"}},{"_id":{"$oid":"69e9bc9d9781f85ddaf3d29c"},"name":"Fowa","__v":0,"coordinates":{"type":"Point","coordinates":[30.5519,31.2038]},"createdAt":{"$date":"2026-04-23T06:30:53.478Z"},"location":"Kafr El Sheikh","status":"active","updatedAt":{"$date":"2026-04-23T06:30:53.478Z"}},{"_id":{"$oid":"69e9bc9d9781f85ddaf3d29d"},"name":"Kafr Saad","__v":0,"coordinates":{"type":"Point","coordinates":[31.6204,31.3556]},"createdAt":{"$date":"2026-04-23T06:30:53.478Z"},"location":"Damietta","status":"active","updatedAt":{"$date":"2026-04-23T06:30:53.478Z"}},{"_id":{"$oid":"69e9bc9d9781f85ddaf3d29e"},"name":"Faraskur","__v":0,"coordinates":{"type":"Point","coordinates":[31.7141,31.3286]},"createdAt":{"$date":"2026-04-23T06:30:53.478Z"},"location":"Damietta","status":"active","updatedAt":{"$date":"2026-04-23T06:30:53.478Z"}},{"_id":{"$oid":"69e9bc9d9781f85ddaf3d29f"},"name":"New Damietta","__v":0,"coordinates":{"type":"Point","coordinates":[31.8133,31.4456]},"createdAt":{"$date":"2026-04-23T06:30:53.478Z"},"location":"Damietta","status":"active","updatedAt":{"$date":"2026-04-23T06:30:53.478Z"}},{"_id":{"$oid":"69e9bc9d9781f85ddaf3d2a0"},"name":"Arish","__v":0,"coordinates":{"type":"Point","coordinates":[33.8006,31.1313]},"createdAt":{"$date":"2026-04-23T06:30:53.478Z"},"location":"North Sinai","status":"active","updatedAt":{"$date":"2026-04-23T06:30:53.478Z"}},{"_id":{"$oid":"69e9bc9d9781f85ddaf3d2a1"},"name":"Bir El Abd","__v":0,"coordinates":{"type":"Point","coordinates":[33.0096,31.0187]},"createdAt":{"$date":"2026-04-23T06:30:53.478Z"},"location":"North Sinai","status":"active","updatedAt":{"$date":"2026-04-23T06:30:53.478Z"}},{"_id":{"$oid":"69e9bc9d9781f85ddaf3d2a2"},"name":"Sheikh Zuweid","__v":0,"coordinates":{"type":"Point","coordinates":[34.0036,31.22]},"createdAt":{"$date":"2026-04-23T06:30:53.478Z"},"location":"North Sinai","status":"active","updatedAt":{"$date":"2026-04-23T06:30:53.478Z"}},{"_id":{"$oid":"69e9bc9d9781f85ddaf3d2a3"},"name":"Rafah","__v":0,"coordinates":{"type":"Point","coordinates":[34.24,31.28]},"createdAt":{"$date":"2026-04-23T06:30:53.478Z"},"location":"North Sinai","status":"active","updatedAt":{"$date":"2026-04-23T06:30:53.478Z"}},{"_id":{"$oid":"69e9bc9d9781f85ddaf3d2a4"},"name":"Taba","__v":0,"coordinates":{"type":"Point","coordinates":[34.8917,29.4925]},"createdAt":{"$date":"2026-04-23T06:30:53.478Z"},"location":"South Sinai","status":"active","updatedAt":{"$date":"2026-04-23T06:30:53.478Z"}},{"_id":{"$oid":"69e9bc9d9781f85ddaf3d2a5"},"name":"Sharm El Sheikh","__v":0,"coordinates":{"type":"Point","coordinates":[34.3299,27.9158]},"createdAt":{"$date":"2026-04-23T06:30:53.478Z"},"location":"South Sinai","status":"active","updatedAt":{"$date":"2026-04-23T06:30:53.478Z"}},{"_id":{"$oid":"69e9bc9d9781f85ddaf3d2a6"},"name":"Dahab","__v":0,"coordinates":{"type":"Point","coordinates":[34.5134,28.5091]},"createdAt":{"$date":"2026-04-23T06:30:53.478Z"},"location":"South Sinai","status":"active","updatedAt":{"$date":"2026-04-23T06:30:53.478Z"}},{"_id":{"$oid":"69e9bcce9781f85ddaf3d2a7"},"name":"Samalut","__v":0,"coordinates":{"type":"Point","coordinates":[30.7107,28.3121]},"createdAt":{"$date":"2026-04-23T06:31:42.626Z"},"location":"Minya","status":"active","updatedAt":{"$date":"2026-04-23T06:31:42.626Z"}},{"_id":{"$oid":"69e9bcce9781f85ddaf3d2a8"},"name":"Beni Mazar","__v":0,"coordinates":{"type":"Point","coordinates":[30.8004,28.5036]},"createdAt":{"$date":"2026-04-23T06:31:42.626Z"},"location":"Minya","status":"active","updatedAt":{"$date":"2026-04-23T06:31:42.626Z"}},{"_id":{"$oid":"69e9bcce9781f85ddaf3d2a9"},"name":"Maghagha","__v":0,"coordinates":{"type":"Point","coordinates":[30.841,28.6473]},"createdAt":{"$date":"2026-04-23T06:31:42.626Z"},"location":"Minya","status":"active","updatedAt":{"$date":"2026-04-23T06:31:42.626Z"}},{"_id":{"$oid":"69e9bcce9781f85ddaf3d2aa"},"name":"El Fashn","__v":0,"coordinates":{"type":"Point","coordinates":[31.0694,28.8241]},"createdAt":{"$date":"2026-04-23T06:31:42.626Z"},"location":"Beni Suef","status":"active","updatedAt":{"$date":"2026-04-23T06:31:42.626Z"}},{"_id":{"$oid":"69e9bcce9781f85ddaf3d2ab"},"name":"Al Wasta","__v":0,"coordinates":{"type":"Point","coordinates":[31.2051,29.3377]},"createdAt":{"$date":"2026-04-23T06:31:42.626Z"},"location":"Beni Suef","status":"active","updatedAt":{"$date":"2026-04-23T06:31:42.626Z"}},{"_id":{"$oid":"69e9bcce9781f85ddaf3d2ac"},"name":"Nasser","__v":0,"coordinates":{"type":"Point","coordinates":[31.1312,29.1468]},"createdAt":{"$date":"2026-04-23T06:31:42.626Z"},"location":"Beni Suef","status":"active","updatedAt":{"$date":"2026-04-23T06:31:42.626Z"}},{"_id":{"$oid":"69e9bcce9781f85ddaf3d2ad"},"name":"Abu Qurqas","__v":0,"coordinates":{"type":"Point","coordinates":[30.8383,27.9312]},"createdAt":{"$date":"2026-04-23T06:31:42.626Z"},"location":"Minya","status":"active","updatedAt":{"$date":"2026-04-23T06:31:42.626Z"}},{"_id":{"$oid":"69e9bcce9781f85ddaf3d2ae"},"name":"Dayrout","__v":0,"coordinates":{"type":"Point","coordinates":[30.8091,27.5568]},"createdAt":{"$date":"2026-04-23T06:31:42.626Z"},"location":"Assiut","status":"active","updatedAt":{"$date":"2026-04-23T06:31:42.626Z"}},{"_id":{"$oid":"69e9bcce9781f85ddaf3d2af"},"name":"Qusiya","__v":0,"coordinates":{"type":"Point","coordinates":[30.8172,27.4403]},"createdAt":{"$date":"2026-04-23T06:31:42.626Z"},"location":"Assiut","status":"active","updatedAt":{"$date":"2026-04-23T06:31:42.626Z"}},{"_id":{"$oid":"69e9bcce9781f85ddaf3d2b0"},"name":"Dishna","__v":0,"coordinates":{"type":"Point","coordinates":[32.4768,26.1246]},"createdAt":{"$date":"2026-04-23T06:31:42.626Z"},"location":"Qena","status":"active","updatedAt":{"$date":"2026-04-23T06:31:42.626Z"}},{"_id":{"$oid":"69e9bcce9781f85ddaf3d2b1"},"name":"Armant","__v":0,"coordinates":{"type":"Point","coordinates":[32.5263,25.6185]},"createdAt":{"$date":"2026-04-23T06:31:42.626Z"},"location":"Luxor","status":"active","updatedAt":{"$date":"2026-04-23T06:31:42.626Z"}},{"_id":{"$oid":"69e9bcce9781f85ddaf3d2b2"},"name":"Tod","__v":0,"coordinates":{"type":"Point","coordinates":[32.5492,25.4777]},"createdAt":{"$date":"2026-04-23T06:31:42.626Z"},"location":"Luxor","status":"active","updatedAt":{"$date":"2026-04-23T06:31:42.626Z"}},{"_id":{"$oid":"69e9bcce9781f85ddaf3d2b3"},"name":"Asyut West","__v":0,"coordinates":{"type":"Point","coordinates":[31.15,27.17]},"createdAt":{"$date":"2026-04-23T06:31:42.626Z"},"location":"Assiut","status":"active","updatedAt":{"$date":"2026-04-23T06:31:42.626Z"}},{"_id":{"$oid":"69e9bcce9781f85ddaf3d2b4"},"name":"Qift","__v":0,"coordinates":{"type":"Point","coordinates":[32.8073,25.9998]},"createdAt":{"$date":"2026-04-23T06:31:42.626Z"},"location":"Qena","status":"active","updatedAt":{"$date":"2026-04-23T06:31:42.626Z"}},{"_id":{"$oid":"69e9bcce9781f85ddaf3d2b5"},"name":"Abu Tesht","__v":0,"coordinates":{"type":"Point","coordinates":[32.0841,26.1205]},"createdAt":{"$date":"2026-04-23T06:31:42.626Z"},"location":"Qena","status":"active","updatedAt":{"$date":"2026-04-23T06:31:42.626Z"}},{"_id":{"$oid":"69e9bcce9781f85ddaf3d2b6"},"name":"Kous","__v":0,"coordinates":{"type":"Point","coordinates":[32.762,25.9148]},"createdAt":{"$date":"2026-04-23T06:31:42.626Z"},"location":"Qena","status":"active","updatedAt":{"$date":"2026-04-23T06:31:42.626Z"}},{"_id":{"$oid":"69e9bcce9781f85ddaf3d2b7"},"name":"Ballas","__v":0,"coordinates":{"type":"Point","coordinates":[32.393,25.9104]},"createdAt":{"$date":"2026-04-23T06:31:42.626Z"},"location":"Qena","status":"active","updatedAt":{"$date":"2026-04-23T06:31:42.626Z"}},{"_id":{"$oid":"69e9bcce9781f85ddaf3d2b8"},"name":"Komir","__v":0,"coordinates":{"type":"Point","coordinates":[32.6104,25.7406]},"createdAt":{"$date":"2026-04-23T06:31:42.626Z"},"location":"Luxor","status":"active","updatedAt":{"$date":"2026-04-23T06:31:42.626Z"}},{"_id":{"$oid":"69e9bcce9781f85ddaf3d2b9"},"name":"Kalabsha","__v":0,"coordinates":{"type":"Point","coordinates":[32.8667,23.9667]},"createdAt":{"$date":"2026-04-23T06:31:42.626Z"},"location":"Aswan","status":"active","updatedAt":{"$date":"2026-04-23T06:31:42.626Z"}},{"_id":{"$oid":"69e9bcce9781f85ddaf3d2ba"},"name":"High Dam","__v":0,"coordinates":{"type":"Point","coordinates":[32.8772,23.97]},"createdAt":{"$date":"2026-04-23T06:31:42.626Z"},"location":"Aswan","status":"active","updatedAt":{"$date":"2026-04-23T06:31:42.626Z"}},{"_id":{"$oid":"69e9bcf79781f85ddaf3d2bb"},"name":"Tanta","__v":0,"coordinates":{"type":"Point","coordinates":[31.0039,30.7865]},"createdAt":{"$date":"2026-04-23T06:32:23.721Z"},"location":"Gharbia","status":"active","updatedAt":{"$date":"2026-04-23T06:32:23.721Z"}},{"_id":{"$oid":"69e9bcf79781f85ddaf3d2bc"},"name":"El Mahalla El Kubra","__v":0,"coordinates":{"type":"Point","coordinates":[31.166,30.9697]},"createdAt":{"$date":"2026-04-23T06:32:23.721Z"},"location":"Gharbia","status":"active","updatedAt":{"$date":"2026-04-23T06:32:23.721Z"}},{"_id":{"$oid":"69e9bcf79781f85ddaf3d2bd"},"name":"Kafr El Zayat","__v":0,"coordinates":{"type":"Point","coordinates":[30.8147,30.8289]},"createdAt":{"$date":"2026-04-23T06:32:23.721Z"},"location":"Gharbia","status":"active","updatedAt":{"$date":"2026-04-23T06:32:23.721Z"}},{"_id":{"$oid":"69e9bcf79781f85ddaf3d2be"},"name":"Zefta","__v":0,"coordinates":{"type":"Point","coordinates":[31.244,30.7145]},"createdAt":{"$date":"2026-04-23T06:32:23.721Z"},"location":"Gharbia","status":"active","updatedAt":{"$date":"2026-04-23T06:32:23.721Z"}},{"_id":{"$oid":"69e9bcf79781f85ddaf3d2bf"},"name":"Basyoun","__v":0,"coordinates":{"type":"Point","coordinates":[30.8136,30.9398]},"createdAt":{"$date":"2026-04-23T06:32:23.721Z"},"location":"Gharbia","status":"active","updatedAt":{"$date":"2026-04-23T06:32:23.721Z"}},{"_id":{"$oid":"69e9bcf79781f85ddaf3d2c0"},"name":"Qutur","__v":0,"coordinates":{"type":"Point","coordinates":[30.9526,30.9716]},"createdAt":{"$date":"2026-04-23T06:32:23.721Z"},"location":"Gharbia","status":"active","updatedAt":{"$date":"2026-04-23T06:32:23.721Z"}},{"_id":{"$oid":"69e9bcf79781f85ddaf3d2c1"},"name":"Samanoud","__v":0,"coordinates":{"type":"Point","coordinates":[31.2416,30.962]},"createdAt":{"$date":"2026-04-23T06:32:23.721Z"},"location":"Gharbia","status":"active","updatedAt":{"$date":"2026-04-23T06:32:23.721Z"}},{"_id":{"$oid":"69e9bcf79781f85ddaf3d2c2"},"name":"Desouk","__v":0,"coordinates":{"type":"Point","coordinates":[30.6454,31.1325]},"createdAt":{"$date":"2026-04-23T06:32:23.721Z"},"location":"Kafr El Sheikh","status":"active","updatedAt":{"$date":"2026-04-23T06:32:23.721Z"}},{"_id":{"$oid":"69e9bcf79781f85ddaf3d2c3"},"name":"Kafr El Sheikh","__v":0,"coordinates":{"type":"Point","coordinates":[30.9398,31.1117]},"createdAt":{"$date":"2026-04-23T06:32:23.721Z"},"location":"Kafr El Sheikh","status":"active","updatedAt":{"$date":"2026-04-23T06:32:23.721Z"}},{"_id":{"$oid":"69e9bcf79781f85ddaf3d2c4"},"name":"Sakha","__v":0,"coordinates":{"type":"Point","coordinates":[30.9508,31.1074]},"createdAt":{"$date":"2026-04-23T06:32:23.721Z"},"location":"Kafr El Sheikh","status":"active","updatedAt":{"$date":"2026-04-23T06:32:23.721Z"}},{"_id":{"$oid":"69e9bcf79781f85ddaf3d2c5"},"name":"El Hamoul","__v":0,"coordinates":{"type":"Point","coordinates":[31.3118,31.3104]},"createdAt":{"$date":"2026-04-23T06:32:23.721Z"},"location":"Kafr El Sheikh","status":"active","updatedAt":{"$date":"2026-04-23T06:32:23.721Z"}},{"_id":{"$oid":"69e9bcf79781f85ddaf3d2c6"},"name":"Mansoura","__v":0,"coordinates":{"type":"Point","coordinates":[31.3785,31.0409]},"createdAt":{"$date":"2026-04-23T06:32:23.721Z"},"location":"Dakahlia","status":"active","updatedAt":{"$date":"2026-04-23T06:32:23.721Z"}},{"_id":{"$oid":"69e9bcf79781f85ddaf3d2c7"},"name":"Talkha","__v":0,"coordinates":{"type":"Point","coordinates":[31.3779,31.0539]},"createdAt":{"$date":"2026-04-23T06:32:23.721Z"},"location":"Dakahlia","status":"active","updatedAt":{"$date":"2026-04-23T06:32:23.721Z"}},{"_id":{"$oid":"69e9bcf79781f85ddaf3d2c8"},"name":"Sherbin","__v":0,"coordinates":{"type":"Point","coordinates":[31.5245,31.1974]},"createdAt":{"$date":"2026-04-23T06:32:23.721Z"},"location":"Dakahlia","status":"active","updatedAt":{"$date":"2026-04-23T06:32:23.721Z"}},{"_id":{"$oid":"69e9bcf79781f85ddaf3d2c9"},"name":"Belqas Center","__v":0,"coordinates":{"type":"Point","coordinates":[31.2147,31.215]},"createdAt":{"$date":"2026-04-23T06:32:23.721Z"},"location":"Dakahlia","status":"active","updatedAt":{"$date":"2026-04-23T06:32:23.721Z"}},{"_id":{"$oid":"69e9bcf79781f85ddaf3d2ca"},"name":"Damietta","__v":0,"coordinates":{"type":"Point","coordinates":[31.8144,31.4175]},"createdAt":{"$date":"2026-04-23T06:32:23.721Z"},"location":"Damietta","status":"active","updatedAt":{"$date":"2026-04-23T06:32:23.721Z"}},{"_id":{"$oid":"69e9bcf79781f85ddaf3d2cb"},"name":"Port Said","__v":0,"coordinates":{"type":"Point","coordinates":[32.3019,31.2653]},"createdAt":{"$date":"2026-04-23T06:32:23.721Z"},"location":"Port Said","status":"active","updatedAt":{"$date":"2026-04-23T06:32:23.721Z"}},{"_id":{"$oid":"69e9bcf79781f85ddaf3d2cc"},"name":"Ismailia","__v":0,"coordinates":{"type":"Point","coordinates":[32.2715,30.5965]},"createdAt":{"$date":"2026-04-23T06:32:23.721Z"},"location":"Ismailia","status":"active","updatedAt":{"$date":"2026-04-23T06:32:23.721Z"}},{"_id":{"$oid":"69e9bcf79781f85ddaf3d2cd"},"name":"Suez","__v":0,"coordinates":{"type":"Point","coordinates":[32.5498,29.9668]},"createdAt":{"$date":"2026-04-23T06:32:23.721Z"},"location":"Suez","status":"active","updatedAt":{"$date":"2026-04-23T06:32:23.721Z"}},{"_id":{"$oid":"69e9bcf79781f85ddaf3d2ce"},"name":"Alexandria Misr","__v":0,"coordinates":{"type":"Point","coordinates":[29.9187,31.2001]},"createdAt":{"$date":"2026-04-23T06:32:23.721Z"},"location":"Alexandria","status":"active","updatedAt":{"$date":"2026-04-23T06:32:23.721Z"}},{"_id":{"$oid":"69e9bd659781f85ddaf3d2cf"},"name":"Kafr Shukr","__v":0,"coordinates":{"type":"Point","coordinates":[31.2551,30.5526]},"createdAt":{"$date":"2026-04-23T06:34:13.399Z"},"location":"Qalyubia","status":"active","updatedAt":{"$date":"2026-04-23T06:34:13.399Z"}},{"_id":{"$oid":"69e9bd659781f85ddaf3d2d0"},"name":"Toukh","__v":0,"coordinates":{"type":"Point","coordinates":[31.2012,30.3547]},"createdAt":{"$date":"2026-04-23T06:34:13.399Z"},"location":"Qalyubia","status":"active","updatedAt":{"$date":"2026-04-23T06:34:13.399Z"}},{"_id":{"$oid":"69e9bd659781f85ddaf3d2d1"},"name":"Qaha","__v":0,"coordinates":{"type":"Point","coordinates":[31.2068,30.2908]},"createdAt":{"$date":"2026-04-23T06:34:13.399Z"},"location":"Qalyubia","status":"active","updatedAt":{"$date":"2026-04-23T06:34:13.399Z"}},{"_id":{"$oid":"69e9bd659781f85ddaf3d2d2"},"name":"Shebin El Qanater","__v":0,"coordinates":{"type":"Point","coordinates":[31.323,30.312]},"createdAt":{"$date":"2026-04-23T06:34:13.399Z"},"location":"Qalyubia","status":"active","updatedAt":{"$date":"2026-04-23T06:34:13.399Z"}},{"_id":{"$oid":"69e9bd659781f85ddaf3d2d3"},"name":"Kafr El Batikh","__v":0,"coordinates":{"type":"Point","coordinates":[31.7317,31.2906]},"createdAt":{"$date":"2026-04-23T06:34:13.399Z"},"location":"Damietta","status":"active","updatedAt":{"$date":"2026-04-23T06:34:13.399Z"}},{"_id":{"$oid":"69e9bd659781f85ddaf3d2d4"},"name":"Ezbet El Borg","__v":0,"coordinates":{"type":"Point","coordinates":[31.8408,31.5084]},"createdAt":{"$date":"2026-04-23T06:34:13.399Z"},"location":"Damietta","status":"active","updatedAt":{"$date":"2026-04-23T06:34:13.399Z"}},{"_id":{"$oid":"69e9bd659781f85ddaf3d2d5"},"name":"Ras El Bar","__v":0,"coordinates":{"type":"Point","coordinates":[31.6358,31.5094]},"createdAt":{"$date":"2026-04-23T06:34:13.399Z"},"location":"Damietta","status":"active","updatedAt":{"$date":"2026-04-23T06:34:13.399Z"}},{"_id":{"$oid":"69e9bd659781f85ddaf3d2d6"},"name":"Mit Salsil","__v":0,"coordinates":{"type":"Point","coordinates":[31.3007,30.9493]},"createdAt":{"$date":"2026-04-23T06:34:13.399Z"},"location":"Dakahlia","status":"active","updatedAt":{"$date":"2026-04-23T06:34:13.399Z"}},{"_id":{"$oid":"69e9bd659781f85ddaf3d2d7"},"name":"El Gamaliya","__v":0,"coordinates":{"type":"Point","coordinates":[31.7257,31.1802]},"createdAt":{"$date":"2026-04-23T06:34:13.399Z"},"location":"Dakahlia","status":"active","updatedAt":{"$date":"2026-04-23T06:34:13.399Z"}},{"_id":{"$oid":"69e9bd659781f85ddaf3d2d8"},"name":"Matariya","__v":0,"coordinates":{"type":"Point","coordinates":[32.031,31.1826]},"createdAt":{"$date":"2026-04-23T06:34:13.399Z"},"location":"Dakahlia","status":"active","updatedAt":{"$date":"2026-04-23T06:34:13.399Z"}},{"_id":{"$oid":"69e9bd659781f85ddaf3d2d9"},"name":"Manzala","__v":0,"coordinates":{"type":"Point","coordinates":[31.9388,31.1582]},"createdAt":{"$date":"2026-04-23T06:34:13.399Z"},"location":"Dakahlia","status":"active","updatedAt":{"$date":"2026-04-23T06:34:13.399Z"}},{"_id":{"$oid":"69e9bd659781f85ddaf3d2da"},"name":"Minyet El Nasr","__v":0,"coordinates":{"type":"Point","coordinates":[31.6432,31.1262]},"createdAt":{"$date":"2026-04-23T06:34:13.399Z"},"location":"Dakahlia","status":"active","updatedAt":{"$date":"2026-04-23T06:34:13.399Z"}},{"_id":{"$oid":"69e9bd659781f85ddaf3d2db"},"name":"Dikirnis","__v":0,"coordinates":{"type":"Point","coordinates":[31.5936,31.0881]},"createdAt":{"$date":"2026-04-23T06:34:13.399Z"},"location":"Dakahlia","status":"active","updatedAt":{"$date":"2026-04-23T06:34:13.399Z"}},{"_id":{"$oid":"69e9bd659781f85ddaf3d2dc"},"name":"Nabaroh","__v":0,"coordinates":{"type":"Point","coordinates":[31.2894,31.1044]},"createdAt":{"$date":"2026-04-23T06:34:13.399Z"},"location":"Dakahlia","status":"active","updatedAt":{"$date":"2026-04-23T06:34:13.399Z"}},{"_id":{"$oid":"69e9bd659781f85ddaf3d2dd"},"name":"Bani Ubayd","__v":0,"coordinates":{"type":"Point","coordinates":[31.2848,30.8796]},"createdAt":{"$date":"2026-04-23T06:34:13.399Z"},"location":"Dakahlia","status":"active","updatedAt":{"$date":"2026-04-23T06:34:13.399Z"}},{"_id":{"$oid":"69e9bd659781f85ddaf3d2de"},"name":"El Senbellawein Center","__v":0,"coordinates":{"type":"Point","coordinates":[31.525,30.94]},"createdAt":{"$date":"2026-04-23T06:34:13.399Z"},"location":"Dakahlia","status":"active","updatedAt":{"$date":"2026-04-23T06:34:13.399Z"}},{"_id":{"$oid":"69e9bd659781f85ddaf3d2df"},"name":"El Ibrahimiya","__v":0,"coordinates":{"type":"Point","coordinates":[31.5622,30.7187]},"createdAt":{"$date":"2026-04-23T06:34:13.399Z"},"location":"Sharqia","status":"active","updatedAt":{"$date":"2026-04-23T06:34:13.399Z"}},{"_id":{"$oid":"69e9bd659781f85ddaf3d2e0"},"name":"Hihya","__v":0,"coordinates":{"type":"Point","coordinates":[31.5899,30.6714]},"createdAt":{"$date":"2026-04-23T06:34:13.399Z"},"location":"Sharqia","status":"active","updatedAt":{"$date":"2026-04-23T06:34:13.399Z"}},{"_id":{"$oid":"69e9bd659781f85ddaf3d2e1"},"name":"Diyarb Negm","__v":0,"coordinates":{"type":"Point","coordinates":[31.4418,30.7545]},"createdAt":{"$date":"2026-04-23T06:34:13.399Z"},"location":"Sharqia","status":"active","updatedAt":{"$date":"2026-04-23T06:34:13.399Z"}},{"_id":{"$oid":"69e9bd659781f85ddaf3d2e2"},"name":"Minya El Qamh","__v":0,"coordinates":{"type":"Point","coordinates":[31.3703,30.4202]},"createdAt":{"$date":"2026-04-23T06:34:13.399Z"},"location":"Sharqia","status":"active","updatedAt":{"$date":"2026-04-23T06:34:13.399Z"}},{"_id":{"$oid":"69e9bd659781f85ddaf3d2e3"},"name":"Bilbeis","__v":0,"coordinates":{"type":"Point","coordinates":[31.562,30.4204]},"createdAt":{"$date":"2026-04-23T06:34:13.399Z"},"location":"Sharqia","status":"active","updatedAt":{"$date":"2026-04-23T06:34:13.399Z"}},{"_id":{"$oid":"69e9bd659781f85ddaf3d2e4"},"name":"Mashtoul El Souq","__v":0,"coordinates":{"type":"Point","coordinates":[31.3732,30.3575]},"createdAt":{"$date":"2026-04-23T06:34:13.399Z"},"location":"Sharqia","status":"active","updatedAt":{"$date":"2026-04-23T06:34:13.399Z"}},{"_id":{"$oid":"69e9bd659781f85ddaf3d2e5"},"name":"Abu Hammad Center","__v":0,"coordinates":{"type":"Point","coordinates":[31.685,30.536]},"createdAt":{"$date":"2026-04-23T06:34:13.399Z"},"location":"Sharqia","status":"active","updatedAt":{"$date":"2026-04-23T06:34:13.399Z"}},{"_id":{"$oid":"69e9bd659781f85ddaf3d2e6"},"name":"Kerdasa","__v":0,"coordinates":{"type":"Point","coordinates":[31.1581,30.0321]},"createdAt":{"$date":"2026-04-23T06:34:13.399Z"},"location":"Giza","status":"active","updatedAt":{"$date":"2026-04-23T06:34:13.399Z"}},{"_id":{"$oid":"69e9bd659781f85ddaf3d2e7"},"name":"Hawamdeya","__v":0,"coordinates":{"type":"Point","coordinates":[31.2571,29.9008]},"createdAt":{"$date":"2026-04-23T06:34:13.399Z"},"location":"Giza","status":"active","updatedAt":{"$date":"2026-04-23T06:34:13.399Z"}},{"_id":{"$oid":"69e9bd659781f85ddaf3d2e8"},"name":"Badrasheen","__v":0,"coordinates":{"type":"Point","coordinates":[31.2164,29.8463]},"createdAt":{"$date":"2026-04-23T06:34:13.399Z"},"location":"Giza","status":"active","updatedAt":{"$date":"2026-04-23T06:34:13.399Z"}},{"_id":{"$oid":"69e9bd659781f85ddaf3d2e9"},"name":"Ayyat","__v":0,"coordinates":{"type":"Point","coordinates":[31.2569,29.6193]},"createdAt":{"$date":"2026-04-23T06:34:13.399Z"},"location":"Giza","status":"active","updatedAt":{"$date":"2026-04-23T06:34:13.399Z"}},{"_id":{"$oid":"69e9bd659781f85ddaf3d2ea"},"name":"Atfih","__v":0,"coordinates":{"type":"Point","coordinates":[31.2557,29.3735]},"createdAt":{"$date":"2026-04-23T06:34:13.399Z"},"location":"Giza","status":"active","updatedAt":{"$date":"2026-04-23T06:34:13.399Z"}},{"_id":{"$oid":"69e9bd659781f85ddaf3d2eb"},"name":"Saf","__v":0,"coordinates":{"type":"Point","coordinates":[31.2814,29.5647]},"createdAt":{"$date":"2026-04-23T06:34:13.399Z"},"location":"Giza","status":"active","updatedAt":{"$date":"2026-04-23T06:34:13.399Z"}},{"_id":{"$oid":"69e9bd659781f85ddaf3d2ec"},"name":"Biba","__v":0,"coordinates":{"type":"Point","coordinates":[31.0845,28.9217]},"createdAt":{"$date":"2026-04-23T06:34:13.399Z"},"location":"Beni Suef","status":"active","updatedAt":{"$date":"2026-04-23T06:34:13.399Z"}},{"_id":{"$oid":"69e9bd659781f85ddaf3d2ed"},"name":"Ihnasia","__v":0,"coordinates":{"type":"Point","coordinates":[30.7924,28.9154]},"createdAt":{"$date":"2026-04-23T06:34:13.399Z"},"location":"Beni Suef","status":"active","updatedAt":{"$date":"2026-04-23T06:34:13.399Z"}},{"_id":{"$oid":"69e9bd659781f85ddaf3d2ee"},"name":"Somosta","__v":0,"coordinates":{"type":"Point","coordinates":[30.8528,28.9161]},"createdAt":{"$date":"2026-04-23T06:34:13.399Z"},"location":"Beni Suef","status":"active","updatedAt":{"$date":"2026-04-23T06:34:13.399Z"}},{"_id":{"$oid":"69e9bd659781f85ddaf3d2ef"},"name":"Nubaria","__v":0,"coordinates":{"type":"Point","coordinates":[30.166,30.895]},"createdAt":{"$date":"2026-04-23T06:34:13.399Z"},"location":"Beheira","status":"active","updatedAt":{"$date":"2026-04-23T06:34:13.399Z"}},{"_id":{"$oid":"69e9bd659781f85ddaf3d2f0"},"name":"Wadi El Natrun","__v":0,"coordinates":{"type":"Point","coordinates":[30.3661,30.641]},"createdAt":{"$date":"2026-04-23T06:34:13.399Z"},"location":"Beheira","status":"active","updatedAt":{"$date":"2026-04-23T06:34:13.399Z"}},{"_id":{"$oid":"69e9bd659781f85ddaf3d2f1"},"name":"Badr","__v":0,"coordinates":{"type":"Point","coordinates":[30.1505,30.1422]},"createdAt":{"$date":"2026-04-23T06:34:13.399Z"},"location":"Beheira","status":"active","updatedAt":{"$date":"2026-04-23T06:34:13.399Z"}},{"_id":{"$oid":"69e9bd659781f85ddaf3d2f2"},"name":"Rashid Center","__v":0,"coordinates":{"type":"Point","coordinates":[30.417,31.404]},"createdAt":{"$date":"2026-04-23T06:34:13.399Z"},"location":"Beheira","status":"active","updatedAt":{"$date":"2026-04-23T06:34:13.399Z"}},{"_id":{"$oid":"69e9bd659781f85ddaf3d2f3"},"name":"Hamoul Center","__v":0,"coordinates":{"type":"Point","coordinates":[31.31,31.311]},"createdAt":{"$date":"2026-04-23T06:34:13.399Z"},"location":"Kafr El Sheikh","status":"active","updatedAt":{"$date":"2026-04-23T06:34:13.399Z"}},{"_id":{"$oid":"69e9bd659781f85ddaf3d2f4"},"name":"Motobas","__v":0,"coordinates":{"type":"Point","coordinates":[30.9502,31.3045]},"createdAt":{"$date":"2026-04-23T06:34:13.399Z"},"location":"Kafr El Sheikh","status":"active","updatedAt":{"$date":"2026-04-23T06:34:13.399Z"}},{"_id":{"$oid":"69e9bd659781f85ddaf3d2f5"},"name":"Qallin","__v":0,"coordinates":{"type":"Point","coordinates":[30.941,31.036]},"createdAt":{"$date":"2026-04-23T06:34:13.399Z"},"location":"Kafr El Sheikh","status":"active","updatedAt":{"$date":"2026-04-23T06:34:13.399Z"}},{"_id":{"$oid":"69e9bd659781f85ddaf3d2f6"},"name":"Riyadh","__v":0,"coordinates":{"type":"Point","coordinates":[31.1104,31.2475]},"createdAt":{"$date":"2026-04-23T06:34:13.399Z"},"location":"Kafr El Sheikh","status":"active","updatedAt":{"$date":"2026-04-23T06:34:13.399Z"}},{"_id":{"$oid":"69e9bd659781f85ddaf3d2f7"},"name":"Sidi Barrani","__v":0,"coordinates":{"type":"Point","coordinates":[25.8261,31.619]},"createdAt":{"$date":"2026-04-23T06:34:13.399Z"},"location":"Matruh","status":"active","updatedAt":{"$date":"2026-04-23T06:34:13.399Z"}},{"_id":{"$oid":"69e9bd659781f85ddaf3d2f8"},"name":"Siwa","__v":0,"coordinates":{"type":"Point","coordinates":[25.5197,29.2041]},"createdAt":{"$date":"2026-04-23T06:34:13.399Z"},"location":"Matruh","status":"active","updatedAt":{"$date":"2026-04-23T06:34:13.399Z"}},{"_id":{"$oid":"69e9bd659781f85ddaf3d2f9"},"name":"Sallum","__v":0,"coordinates":{"type":"Point","coordinates":[25.1511,31.5652]},"createdAt":{"$date":"2026-04-23T06:34:13.399Z"},"location":"Matruh","status":"active","updatedAt":{"$date":"2026-04-23T06:34:13.399Z"}},{"_id":{"$oid":"69e9bd659781f85ddaf3d2fa"},"name":"Quseir City","__v":0,"coordinates":{"type":"Point","coordinates":[34.2795,26.104]},"createdAt":{"$date":"2026-04-23T06:34:13.399Z"},"location":"Red Sea","status":"active","updatedAt":{"$date":"2026-04-23T06:34:13.399Z"}},{"_id":{"$oid":"69e9bd659781f85ddaf3d2fb"},"name":"Marsa Alam","__v":0,"coordinates":{"type":"Point","coordinates":[34.8901,25.0676]},"createdAt":{"$date":"2026-04-23T06:34:13.399Z"},"location":"Red Sea","status":"active","updatedAt":{"$date":"2026-04-23T06:34:13.399Z"}},{"_id":{"$oid":"69e9bd659781f85ddaf3d2fc"},"name":"Shalateen","__v":0,"coordinates":{"type":"Point","coordinates":[35.5796,23.1366]},"createdAt":{"$date":"2026-04-23T06:34:13.399Z"},"location":"Red Sea","status":"active","updatedAt":{"$date":"2026-04-23T06:34:13.399Z"}},{"_id":{"$oid":"69e9bd659781f85ddaf3d2fd"},"name":"Abu Simbel","__v":0,"coordinates":{"type":"Point","coordinates":[31.6258,22.3457]},"createdAt":{"$date":"2026-04-23T06:34:13.399Z"},"location":"Aswan","status":"active","updatedAt":{"$date":"2026-04-23T06:34:13.399Z"}},{"_id":{"$oid":"69e9bd659781f85ddaf3d2fe"},"name":"Toshka","__v":0,"coordinates":{"type":"Point","coordinates":[31.88,22.75]},"createdAt":{"$date":"2026-04-23T06:34:13.399Z"},"location":"Aswan","status":"active","updatedAt":{"$date":"2026-04-23T06:34:13.399Z"}},{"_id":{"$oid":"69e9bd659781f85ddaf3d2ff"},"name":"Kharga","__v":0,"coordinates":{"type":"Point","coordinates":[30.5464,25.4514]},"createdAt":{"$date":"2026-04-23T06:34:13.399Z"},"location":"New Valley","status":"active","updatedAt":{"$date":"2026-04-23T06:34:13.399Z"}},{"_id":{"$oid":"69e9bd659781f85ddaf3d300"},"name":"Dakhla","__v":0,"coordinates":{"type":"Point","coordinates":[28.979,25.4894]},"createdAt":{"$date":"2026-04-23T06:34:13.399Z"},"location":"New Valley","status":"active","updatedAt":{"$date":"2026-04-23T06:34:13.399Z"}},{"_id":{"$oid":"69e9bdd59781f85ddaf3d301"},"name":"Farafra","__v":0,"coordinates":{"type":"Point","coordinates":[27.9714,27.0568]},"createdAt":{"$date":"2026-04-23T06:36:05.292Z"},"location":"New Valley","status":"active","updatedAt":{"$date":"2026-04-23T06:36:05.292Z"}},{"_id":{"$oid":"69e9bdd59781f85ddaf3d302"},"name":"Baris","__v":0,"coordinates":{"type":"Point","coordinates":[30.5825,24.3739]},"createdAt":{"$date":"2026-04-23T06:36:05.292Z"},"location":"New Valley","status":"active","updatedAt":{"$date":"2026-04-23T06:36:05.292Z"}},{"_id":{"$oid":"69e9bdd59781f85ddaf3d303"},"name":"Balat","__v":0,"coordinates":{"type":"Point","coordinates":[29.2876,25.5577]},"createdAt":{"$date":"2026-04-23T06:36:05.292Z"},"location":"New Valley","status":"active","updatedAt":{"$date":"2026-04-23T06:36:05.292Z"}},{"_id":{"$oid":"69e9bdd59781f85ddaf3d304"},"name":"Paris","__v":0,"coordinates":{"type":"Point","coordinates":[30.739,24.0496]},"createdAt":{"$date":"2026-04-23T06:36:05.292Z"},"location":"New Valley","status":"active","updatedAt":{"$date":"2026-04-23T06:36:05.292Z"}},{"_id":{"$oid":"69e9bdd59781f85ddaf3d305"},"name":"Mut","__v":0,"coordinates":{"type":"Point","coordinates":[28.9789,25.4954]},"createdAt":{"$date":"2026-04-23T06:36:05.292Z"},"location":"New Valley","status":"active","updatedAt":{"$date":"2026-04-23T06:36:05.292Z"}},{"_id":{"$oid":"69e9bdd59781f85ddaf3d306"},"name":"Qasr","__v":0,"coordinates":{"type":"Point","coordinates":[28.8912,25.7003]},"createdAt":{"$date":"2026-04-23T06:36:05.292Z"},"location":"New Valley","status":"active","updatedAt":{"$date":"2026-04-23T06:36:05.292Z"}},{"_id":{"$oid":"69e9bdd59781f85ddaf3d307"},"name":"Bahariya","__v":0,"coordinates":{"type":"Point","coordinates":[28.8659,28.3486]},"createdAt":{"$date":"2026-04-23T06:36:05.292Z"},"location":"Giza","status":"active","updatedAt":{"$date":"2026-04-23T06:36:05.292Z"}},{"_id":{"$oid":"69e9bdd59781f85ddaf3d308"},"name":"Bawiti","__v":0,"coordinates":{"type":"Point","coordinates":[28.9547,28.3492]},"createdAt":{"$date":"2026-04-23T06:36:05.292Z"},"location":"Giza","status":"active","updatedAt":{"$date":"2026-04-23T06:36:05.292Z"}},{"_id":{"$oid":"69e9bdd59781f85ddaf3d309"},"name":"Frafra Oasis","__v":0,"coordinates":{"type":"Point","coordinates":[27.9831,27.0614]},"createdAt":{"$date":"2026-04-23T06:36:05.292Z"},"location":"New Valley","status":"active","updatedAt":{"$date":"2026-04-23T06:36:05.292Z"}},{"_id":{"$oid":"69e9bdd59781f85ddaf3d30a"},"name":"Ain Dalla","__v":0,"coordinates":{"type":"Point","coordinates":[28.25,27.3]},"createdAt":{"$date":"2026-04-23T06:36:05.292Z"},"location":"New Valley","status":"active","updatedAt":{"$date":"2026-04-23T06:36:05.292Z"}},{"_id":{"$oid":"69e9bdd59781f85ddaf3d30b"},"name":"Ain Khadra","__v":0,"coordinates":{"type":"Point","coordinates":[28.6,25.9]},"createdAt":{"$date":"2026-04-23T06:36:05.292Z"},"location":"New Valley","status":"active","updatedAt":{"$date":"2026-04-23T06:36:05.292Z"}},{"_id":{"$oid":"69e9bdd59781f85ddaf3d30c"},"name":"El Heiz","__v":0,"coordinates":{"type":"Point","coordinates":[28.4,28.1]},"createdAt":{"$date":"2026-04-23T06:36:05.292Z"},"location":"Giza","status":"active","updatedAt":{"$date":"2026-04-23T06:36:05.292Z"}},{"_id":{"$oid":"69e9bdd59781f85ddaf3d30d"},"name":"Ain El Wadi","__v":0,"coordinates":{"type":"Point","coordinates":[29.1,25.6]},"createdAt":{"$date":"2026-04-23T06:36:05.292Z"},"location":"New Valley","status":"active","updatedAt":{"$date":"2026-04-23T06:36:05.292Z"}},{"_id":{"$oid":"69e9bdd59781f85ddaf3d30e"},"name":"Ain Amour","__v":0,"coordinates":{"type":"Point","coordinates":[27.9,27.2]},"createdAt":{"$date":"2026-04-23T06:36:05.292Z"},"location":"New Valley","status":"active","updatedAt":{"$date":"2026-04-23T06:36:05.292Z"}},{"_id":{"$oid":"69e9bdd59781f85ddaf3d30f"},"name":"Ain Bishmo","__v":0,"coordinates":{"type":"Point","coordinates":[28.7,28.4]},"createdAt":{"$date":"2026-04-23T06:36:05.292Z"},"location":"Giza","status":"active","updatedAt":{"$date":"2026-04-23T06:36:05.292Z"}},{"_id":{"$oid":"69e9bdd59781f85ddaf3d310"},"name":"Ain Tuni","__v":0,"coordinates":{"type":"Point","coordinates":[28.5,27.1]},"createdAt":{"$date":"2026-04-23T06:36:05.292Z"},"location":"New Valley","status":"active","updatedAt":{"$date":"2026-04-23T06:36:05.292Z"}},{"_id":{"$oid":"69e9bdd59781f85ddaf3d311"},"name":"Ain Maghfa","__v":0,"coordinates":{"type":"Point","coordinates":[29,25.8]},"createdAt":{"$date":"2026-04-23T06:36:05.292Z"},"location":"New Valley","status":"active","updatedAt":{"$date":"2026-04-23T06:36:05.292Z"}},{"_id":{"$oid":"69e9bdd59781f85ddaf3d312"},"name":"Ain Jowz","__v":0,"coordinates":{"type":"Point","coordinates":[28.3,25.9]},"createdAt":{"$date":"2026-04-23T06:36:05.292Z"},"location":"New Valley","status":"active","updatedAt":{"$date":"2026-04-23T06:36:05.292Z"}},{"_id":{"$oid":"69e9bdd59781f85ddaf3d313"},"name":"Ain Sheikh","__v":0,"coordinates":{"type":"Point","coordinates":[28.7,25.7]},"createdAt":{"$date":"2026-04-23T06:36:05.292Z"},"location":"New Valley","status":"active","updatedAt":{"$date":"2026-04-23T06:36:05.292Z"}},{"_id":{"$oid":"69e9bdd59781f85ddaf3d314"},"name":"Ain Horra","__v":0,"coordinates":{"type":"Point","coordinates":[28.1,27]},"createdAt":{"$date":"2026-04-23T06:36:05.292Z"},"location":"New Valley","status":"active","updatedAt":{"$date":"2026-04-23T06:36:05.292Z"}},{"_id":{"$oid":"69e9bdd59781f85ddaf3d315"},"name":"Ain Samaha","__v":0,"coordinates":{"type":"Point","coordinates":[27.8,27.4]},"createdAt":{"$date":"2026-04-23T06:36:05.292Z"},"location":"New Valley","status":"active","updatedAt":{"$date":"2026-04-23T06:36:05.292Z"}},{"_id":{"$oid":"69e9bdd59781f85ddaf3d316"},"name":"Ain Safi","__v":0,"coordinates":{"type":"Point","coordinates":[28.9,25.6]},"createdAt":{"$date":"2026-04-23T06:36:05.292Z"},"location":"New Valley","status":"active","updatedAt":{"$date":"2026-04-23T06:36:05.292Z"}},{"_id":{"$oid":"69e9bdd59781f85ddaf3d317"},"name":"Ain El Serw","__v":0,"coordinates":{"type":"Point","coordinates":[29.2,25.5]},"createdAt":{"$date":"2026-04-23T06:36:05.292Z"},"location":"New Valley","status":"active","updatedAt":{"$date":"2026-04-23T06:36:05.292Z"}},{"_id":{"$oid":"69e9bdd59781f85ddaf3d318"},"name":"Ain Hinnis","__v":0,"coordinates":{"type":"Point","coordinates":[28.6,25.8]},"createdAt":{"$date":"2026-04-23T06:36:05.292Z"},"location":"New Valley","status":"active","updatedAt":{"$date":"2026-04-23T06:36:05.292Z"}},{"_id":{"$oid":"69e9bdd59781f85ddaf3d319"},"name":"Ain Girm","__v":0,"coordinates":{"type":"Point","coordinates":[28.4,25.95]},"createdAt":{"$date":"2026-04-23T06:36:05.292Z"},"location":"New Valley","status":"active","updatedAt":{"$date":"2026-04-23T06:36:05.292Z"}},{"_id":{"$oid":"69e9bdd59781f85ddaf3d31a"},"name":"Ain Marun","__v":0,"coordinates":{"type":"Point","coordinates":[28.2,25.85]},"createdAt":{"$date":"2026-04-23T06:36:05.292Z"},"location":"New Valley","status":"active","updatedAt":{"$date":"2026-04-23T06:36:05.292Z"}},{"_id":{"$oid":"69e9bdd59781f85ddaf3d31b"},"name":"Ain Dakhakhin","__v":0,"coordinates":{"type":"Point","coordinates":[28.75,25.75]},"createdAt":{"$date":"2026-04-23T06:36:05.292Z"},"location":"New Valley","status":"active","updatedAt":{"$date":"2026-04-23T06:36:05.292Z"}},{"_id":{"$oid":"69e9bdd59781f85ddaf3d31c"},"name":"Ain El Makfi","__v":0,"coordinates":{"type":"Point","coordinates":[28.95,25.65]},"createdAt":{"$date":"2026-04-23T06:36:05.292Z"},"location":"New Valley","status":"active","updatedAt":{"$date":"2026-04-23T06:36:05.292Z"}},{"_id":{"$oid":"69e9bdd59781f85ddaf3d31d"},"name":"Ain Abu Said","__v":0,"coordinates":{"type":"Point","coordinates":[28.3,26.1]},"createdAt":{"$date":"2026-04-23T06:36:05.292Z"},"location":"New Valley","status":"active","updatedAt":{"$date":"2026-04-23T06:36:05.292Z"}},{"_id":{"$oid":"69e9bdd59781f85ddaf3d31e"},"name":"Ain El Gedida","__v":0,"coordinates":{"type":"Point","coordinates":[28.85,25.55]},"createdAt":{"$date":"2026-04-23T06:36:05.292Z"},"location":"New Valley","status":"active","updatedAt":{"$date":"2026-04-23T06:36:05.292Z"}},{"_id":{"$oid":"69e9bdd59781f85ddaf3d31f"},"name":"Ain El Tarfawi","__v":0,"coordinates":{"type":"Point","coordinates":[28.1,26]},"createdAt":{"$date":"2026-04-23T06:36:05.292Z"},"location":"New Valley","status":"active","updatedAt":{"$date":"2026-04-23T06:36:05.292Z"}},{"_id":{"$oid":"69e9bdd59781f85ddaf3d320"},"name":"Ain Umm Dabadib","__v":0,"coordinates":{"type":"Point","coordinates":[28.6,25.65]},"createdAt":{"$date":"2026-04-23T06:36:05.292Z"},"location":"New Valley","status":"active","updatedAt":{"$date":"2026-04-23T06:36:05.292Z"}},{"_id":{"$oid":"69e9bdd59781f85ddaf3d321"},"name":"Ain Bashendi","__v":0,"coordinates":{"type":"Point","coordinates":[28.99,25.47]},"createdAt":{"$date":"2026-04-23T06:36:05.292Z"},"location":"New Valley","status":"active","updatedAt":{"$date":"2026-04-23T06:36:05.292Z"}},{"_id":{"$oid":"69e9bdd59781f85ddaf3d322"},"name":"Ain Qalamun","__v":0,"coordinates":{"type":"Point","coordinates":[28.93,25.53]},"createdAt":{"$date":"2026-04-23T06:36:05.292Z"},"location":"New Valley","status":"active","updatedAt":{"$date":"2026-04-23T06:36:05.292Z"}},{"_id":{"$oid":"69e9bdd59781f85ddaf3d323"},"name":"Ain Tenida","__v":0,"coordinates":{"type":"Point","coordinates":[28.8,25.42]},"createdAt":{"$date":"2026-04-23T06:36:05.292Z"},"location":"New Valley","status":"active","updatedAt":{"$date":"2026-04-23T06:36:05.292Z"}},{"_id":{"$oid":"69e9bdd59781f85ddaf3d324"},"name":"Ain Budkhulu","__v":0,"coordinates":{"type":"Point","coordinates":[28.7,25.48]},"createdAt":{"$date":"2026-04-23T06:36:05.292Z"},"location":"New Valley","status":"active","updatedAt":{"$date":"2026-04-23T06:36:05.292Z"}},{"_id":{"$oid":"69e9bdd59781f85ddaf3d325"},"name":"Ain Alamein","__v":0,"coordinates":{"type":"Point","coordinates":[28.95,30.83]},"createdAt":{"$date":"2026-04-23T06:36:05.292Z"},"location":"Matruh","status":"active","updatedAt":{"$date":"2026-04-23T06:36:05.292Z"}},{"_id":{"$oid":"69e9bdd59781f85ddaf3d326"},"name":"El Dabaa","__v":0,"coordinates":{"type":"Point","coordinates":[28.4333,31.0333]},"createdAt":{"$date":"2026-04-23T06:36:05.292Z"},"location":"Matruh","status":"active","updatedAt":{"$date":"2026-04-23T06:36:05.292Z"}},{"_id":{"$oid":"69e9bdd59781f85ddaf3d327"},"name":"Nagila","__v":0,"coordinates":{"type":"Point","coordinates":[26.75,31.1167]},"createdAt":{"$date":"2026-04-23T06:36:05.292Z"},"location":"Matruh","status":"active","updatedAt":{"$date":"2026-04-23T06:36:05.292Z"}},{"_id":{"$oid":"69e9bdd59781f85ddaf3d328"},"name":"Sidi Abdel Rahman","__v":0,"coordinates":{"type":"Point","coordinates":[28.95,30.98]},"createdAt":{"$date":"2026-04-23T06:36:05.292Z"},"location":"Matruh","status":"active","updatedAt":{"$date":"2026-04-23T06:47:11.9Z"}},{"_id":{"$oid":"69f66892cb1d761d3bb103ae"},"normalizedName":"القاهرة","__v":0,"coordinates":{"type":"Point","coordinates":[30.0444,31.2357]},"createdAt":{"$date":"2026-05-02T21:11:46.716Z"},"location":"محطة القاهرة","name":"القاهرة","status":"active","updatedAt":{"$date":"2026-05-02T21:11:46.716Z"}},{"_id":{"$oid":"69f66892cb1d761d3bb103af"},"normalizedName":"الجيزة","__v":0,"coordinates":{"type":"Point","coordinates":[30.0131,31.2089]},"createdAt":{"$date":"2026-05-02T21:11:46.716Z"},"location":"محطة الجيزة","name":"الجيزة","status":"active","updatedAt":{"$date":"2026-05-02T21:11:46.716Z"}},{"_id":{"$oid":"69f66892cb1d761d3bb103b0"},"normalizedName":"بني سويف","__v":0,"coordinates":{"type":"Point","coordinates":[29.0661,31.0994]},"createdAt":{"$date":"2026-05-02T21:11:46.716Z"},"location":"محطة بني سويف","name":"بني سويف","status":"active","updatedAt":{"$date":"2026-05-02T21:11:46.716Z"}},{"_id":{"$oid":"69f66892cb1d761d3bb103b1"},"normalizedName":"المنيا","__v":0,"coordinates":{"type":"Point","coordinates":[28.1099,30.7503]},"createdAt":{"$date":"2026-05-02T21:11:46.716Z"},"location":"محطة المنيا","name":"المنيا","status":"active","updatedAt":{"$date":"2026-05-02T21:11:46.716Z"}},{"_id":{"$oid":"69f66892cb1d761d3bb103b2"},"normalizedName":"أسيوط","__v":0,"coordinates":{"type":"Point","coordinates":[27.1809,31.1837]},"createdAt":{"$date":"2026-05-02T21:11:46.716Z"},"location":"محطة أسيوط","name":"أسيوط","status":"active","updatedAt":{"$date":"2026-05-02T21:11:46.716Z"}},{"_id":{"$oid":"69f66892cb1d761d3bb103b3"},"normalizedName":"سوهاج","__v":0,"coordinates":{"type":"Point","coordinates":[26.5591,31.6957]},"createdAt":{"$date":"2026-05-02T21:11:46.716Z"},"location":"محطة سوهاج","name":"سوهاج","status":"active","updatedAt":{"$date":"2026-05-02T21:11:46.716Z"}},{"_id":{"$oid":"69f66892cb1d761d3bb103b4"},"normalizedName":"قنا","__v":0,"coordinates":{"type":"Point","coordinates":[26.1642,32.7267]},"createdAt":{"$date":"2026-05-02T21:11:46.716Z"},"location":"محطة قنا","name":"قنا","status":"active","updatedAt":{"$date":"2026-05-02T21:11:46.716Z"}},{"_id":{"$oid":"69f66892cb1d761d3bb103b5"},"normalizedName":"الأقصر","__v":0,"coordinates":{"type":"Point","coordinates":[25.6872,32.6396]},"createdAt":{"$date":"2026-05-02T21:11:46.716Z"},"location":"محطة الأقصر","name":"الأقصر","status":"active","updatedAt":{"$date":"2026-05-02T21:11:46.716Z"}},{"_id":{"$oid":"69f66892cb1d761d3bb103b6"},"normalizedName":"أسوان","__v":0,"coordinates":{"type":"Point","coordinates":[24.0889,32.8998]},"createdAt":{"$date":"2026-05-02T21:11:46.716Z"},"location":"محطة أسوان","name":"أسوان","status":"active","updatedAt":{"$date":"2026-05-02T21:11:46.716Z"}},{"_id":{"$oid":"69f66892cb1d761d3bb103b7"},"normalizedName":"الإسكندرية","__v":0,"coordinates":{"type":"Point","coordinates":[31.2001,29.9187]},"createdAt":{"$date":"2026-05-02T21:11:46.716Z"},"location":"محطة الإسكندرية","name":"الإسكندرية","status":"active","updatedAt":{"$date":"2026-05-02T21:11:46.716Z"}},{"_id":{"$oid":"69f66892cb1d761d3bb103b8"},"normalizedName":"طنطا","__v":0,"coordinates":{"type":"Point","coordinates":[30.7865,31.0004]},"createdAt":{"$date":"2026-05-02T21:11:46.716Z"},"location":"محطة طنطا","name":"طنطا","status":"active","updatedAt":{"$date":"2026-05-02T21:11:46.716Z"}},{"_id":{"$oid":"69f66892cb1d761d3bb103b9"},"normalizedName":"الزقازيق","__v":0,"coordinates":{"type":"Point","coordinates":[30.5877,31.502]},"createdAt":{"$date":"2026-05-02T21:11:46.716Z"},"location":"محطة الزقازيق","name":"الزقازيق","status":"active","updatedAt":{"$date":"2026-05-02T21:11:46.716Z"}},{"_id":{"$oid":"69f66892cb1d761d3bb103ba"},"normalizedName":"دمياط","__v":0,"coordinates":{"type":"Point","coordinates":[31.4165,31.8133]},"createdAt":{"$date":"2026-05-02T21:11:46.716Z"},"location":"محطة دمياط","name":"دمياط","status":"active","updatedAt":{"$date":"2026-05-02T21:11:46.716Z"}},{"_id":{"$oid":"69f66892cb1d761d3bb103bb"},"normalizedName":"بورسعيد","__v":0,"coordinates":{"type":"Point","coordinates":[31.2653,32.3019]},"createdAt":{"$date":"2026-05-02T21:11:46.716Z"},"location":"محطة بورسعيد","name":"بورسعيد","status":"active","updatedAt":{"$date":"2026-05-02T21:11:46.716Z"}},{"_id":{"$oid":"69f66892cb1d761d3bb103bc"},"normalizedName":"الإسماعيلية","__v":0,"coordinates":{"type":"Point","coordinates":[30.5965,32.2715]},"createdAt":{"$date":"2026-05-02T21:11:46.716Z"},"location":"محطة الإسماعيلية","name":"الإسماعيلية","status":"active","updatedAt":{"$date":"2026-05-02T21:11:46.716Z"}},{"_id":{"$oid":"69f66930cb1d761d3bb103bd"},"normalizedName":"المحلة الكبرى","__v":0,"coordinates":{"type":"Point","coordinates":[30.97,31.1667]},"createdAt":{"$date":"2026-05-02T21:14:24.395Z"},"location":"محطة المحلة الكبرى","name":"المحلة الكبرى","status":"active","updatedAt":{"$date":"2026-05-02T21:14:24.395Z"}},{"_id":{"$oid":"69f66930cb1d761d3bb103be"},"normalizedName":"شبين الكوم","__v":0,"coordinates":{"type":"Point","coordinates":[30.55,31]},"createdAt":{"$date":"2026-05-02T21:14:24.395Z"},"location":"محطة شبين الكوم","name":"شبين الكوم","status":"active","updatedAt":{"$date":"2026-05-02T21:14:24.395Z"}},{"_id":{"$oid":"69f66930cb1d761d3bb103bf"},"normalizedName":"كفر الشيخ","__v":0,"coordinates":{"type":"Point","coordinates":[31.1117,30.9394]},"createdAt":{"$date":"2026-05-02T21:14:24.395Z"},"location":"محطة كفر الشيخ","name":"كفر الشيخ","status":"active","updatedAt":{"$date":"2026-05-02T21:14:24.395Z"}},{"_id":{"$oid":"69f66930cb1d761d3bb103c0"},"normalizedName":"دمنهور","__v":0,"coordinates":{"type":"Point","coordinates":[31.05,30.4667]},"createdAt":{"$date":"2026-05-02T21:14:24.395Z"},"location":"محطة دمنهور","name":"دمنهور","status":"active","updatedAt":{"$date":"2026-05-02T21:14:24.395Z"}},{"_id":{"$oid":"69f66930cb1d761d3bb103c1"},"normalizedName":"مرسى مطروح","__v":0,"coordinates":{"type":"Point","coordinates":[31.3543,27.2289]},"createdAt":{"$date":"2026-05-02T21:14:24.395Z"},"location":"محطة مرسى مطروح","name":"مرسى مطروح","status":"active","updatedAt":{"$date":"2026-05-02T21:14:24.395Z"}},{"_id":{"$oid":"69f66930cb1d761d3bb103c2"},"normalizedName":"العريش","__v":0,"coordinates":{"type":"Point","coordinates":[31.1316,33.7984]},"createdAt":{"$date":"2026-05-02T21:14:24.395Z"},"location":"محطة العريش","name":"العريش","status":"active","updatedAt":{"$date":"2026-05-02T21:14:24.395Z"}},{"_id":{"$oid":"69f66930cb1d761d3bb103c3"},"normalizedName":"السويس","__v":0,"coordinates":{"type":"Point","coordinates":[29.9668,32.5498]},"createdAt":{"$date":"2026-05-02T21:14:24.395Z"},"location":"محطة السويس","name":"السويس","status":"active","updatedAt":{"$date":"2026-05-02T21:14:24.395Z"}},{"_id":{"$oid":"69f66930cb1d761d3bb103c4"},"normalizedName":"الفيوم","__v":0,"coordinates":{"type":"Point","coordinates":[29.3084,30.8418]},"createdAt":{"$date":"2026-05-02T21:14:24.395Z"},"location":"محطة الفيوم","name":"الفيوم","status":"active","updatedAt":{"$date":"2026-05-02T21:14:24.395Z"}},{"_id":{"$oid":"69f66930cb1d761d3bb103c5"},"normalizedName":"المنوفية","__v":0,"coordinates":{"type":"Point","coordinates":[30.4667,30.9667]},"createdAt":{"$date":"2026-05-02T21:14:24.395Z"},"location":"محطة المنوفية","name":"المنوفية","status":"active","updatedAt":{"$date":"2026-05-02T21:14:24.395Z"}},{"_id":{"$oid":"69f66930cb1d761d3bb103c6"},"normalizedName":"الشرقية","__v":0,"coordinates":{"type":"Point","coordinates":[30.7333,31.6]},"createdAt":{"$date":"2026-05-02T21:14:24.395Z"},"location":"محطة الشرقية","name":"الشرقية","status":"active","updatedAt":{"$date":"2026-05-02T21:14:24.395Z"}},{"_id":{"$oid":"69f66930cb1d761d3bb103c7"},"normalizedName":"المنصورة","__v":0,"coordinates":{"type":"Point","coordinates":[31.0409,31.3785]},"createdAt":{"$date":"2026-05-02T21:14:24.395Z"},"location":"محطة المنصورة","name":"المنصورة","status":"active","updatedAt":{"$date":"2026-05-02T21:14:24.395Z"}},{"_id":{"$oid":"69f66930cb1d761d3bb103c8"},"normalizedName":"ميت غمر","__v":0,"coordinates":{"type":"Point","coordinates":[30.7167,31.25]},"createdAt":{"$date":"2026-05-02T21:14:24.395Z"},"location":"محطة ميت غمر","name":"ميت غمر","status":"active","updatedAt":{"$date":"2026-05-02T21:14:24.395Z"}},{"_id":{"$oid":"69f66930cb1d761d3bb103c9"},"normalizedName":"بلبيس","__v":0,"coordinates":{"type":"Point","coordinates":[30.4167,31.5667]},"createdAt":{"$date":"2026-05-02T21:14:24.395Z"},"location":"محطة بلبيس","name":"بلبيس","status":"active","updatedAt":{"$date":"2026-05-02T21:14:24.395Z"}},{"_id":{"$oid":"69f66930cb1d761d3bb103ca"},"normalizedName":"أبو حماد","__v":0,"coordinates":{"type":"Point","coordinates":[30.5667,31.5667]},"createdAt":{"$date":"2026-05-02T21:14:24.395Z"},"location":"محطة أبو حماد","name":"أبو حماد","status":"active","updatedAt":{"$date":"2026-05-02T21:14:24.395Z"}},{"_id":{"$oid":"69f66930cb1d761d3bb103cb"},"normalizedName":"الحسينية","__v":0,"coordinates":{"type":"Point","coordinates":[30.7167,31.8667]},"createdAt":{"$date":"2026-05-02T21:14:24.395Z"},"location":"محطة الحسينية","name":"الحسينية","status":"active","updatedAt":{"$date":"2026-05-02T21:14:24.395Z"}},{"_id":{"$oid":"69f6695dcb1d761d3bb103cc"},"normalizedName":"سيدي جابر","__v":0,"coordinates":{"type":"Point","coordinates":[31.223,29.9489]},"createdAt":{"$date":"2026-05-02T21:15:09.185Z"},"location":"محطة سيدي جابر","name":"سيدي جابر","status":"active","updatedAt":{"$date":"2026-05-02T21:15:09.185Z"}},{"_id":{"$oid":"69f6695dcb1d761d3bb103cd"},"normalizedName":"أبو قير","__v":0,"coordinates":{"type":"Point","coordinates":[31.2833,30]},"createdAt":{"$date":"2026-05-02T21:15:09.185Z"},"location":"محطة أبو قير","name":"أبو قير","status":"active","updatedAt":{"$date":"2026-05-02T21:15:09.185Z"}},{"_id":{"$oid":"69f6695dcb1d761d3bb103ce"},"normalizedName":"رأس البر","__v":0,"coordinates":{"type":"Point","coordinates":[31.5,31.8167]},"createdAt":{"$date":"2026-05-02T21:15:09.185Z"},"location":"محطة رأس البر","name":"رأس البر","status":"active","updatedAt":{"$date":"2026-05-02T21:15:09.185Z"}},{"_id":{"$oid":"69f6695dcb1d761d3bb103cf"},"normalizedName":"كفر الدوار","__v":0,"coordinates":{"type":"Point","coordinates":[31.1333,30.1333]},"createdAt":{"$date":"2026-05-02T21:15:09.185Z"},"location":"محطة كفر الدوار","name":"كفر الدوار","status":"active","updatedAt":{"$date":"2026-05-02T21:15:09.185Z"}},{"_id":{"$oid":"69f6695dcb1d761d3bb103d0"},"normalizedName":"إدفو","__v":0,"coordinates":{"type":"Point","coordinates":[24.9792,32.8756]},"createdAt":{"$date":"2026-05-02T21:15:09.185Z"},"location":"محطة إدفو","name":"إدفو","status":"active","updatedAt":{"$date":"2026-05-02T21:15:09.185Z"}},{"_id":{"$oid":"69f6695dcb1d761d3bb103d1"},"normalizedName":"ديروط","__v":0,"coordinates":{"type":"Point","coordinates":[27.55,30.8]},"createdAt":{"$date":"2026-05-02T21:15:09.185Z"},"location":"محطة ديروط","name":"ديروط","status":"active","updatedAt":{"$date":"2026-05-02T21:15:09.185Z"}},{"_id":{"$oid":"69f6695dcb1d761d3bb103d2"},"normalizedName":"ملوي","__v":0,"coordinates":{"type":"Point","coordinates":[27.7333,30.8333]},"createdAt":{"$date":"2026-05-02T21:15:09.185Z"},"location":"محطة ملوي","name":"ملوي","status":"active","updatedAt":{"$date":"2026-05-02T21:15:09.185Z"}},{"_id":{"$oid":"69f6695dcb1d761d3bb103d3"},"normalizedName":"نجع حمادي","__v":0,"coordinates":{"type":"Point","coordinates":[26.05,32.2333]},"createdAt":{"$date":"2026-05-02T21:15:09.185Z"},"location":"محطة نجع حمادي","name":"نجع حمادي","status":"active","updatedAt":{"$date":"2026-05-02T21:15:09.185Z"}},{"_id":{"$oid":"69f6695dcb1d761d3bb103d4"},"normalizedName":"الواحات البحرية","__v":0,"coordinates":{"type":"Point","coordinates":[28.35,28.8667]},"createdAt":{"$date":"2026-05-02T21:15:09.185Z"},"location":"محطة الواحات البحرية","name":"الواحات البحرية","status":"active","updatedAt":{"$date":"2026-05-02T21:15:09.185Z"}},{"_id":{"$oid":"69f6695dcb1d761d3bb103d5"},"normalizedName":"الخارجة","__v":0,"coordinates":{"type":"Point","coordinates":[25.45,30.55]},"createdAt":{"$date":"2026-05-02T21:15:09.185Z"},"location":"محطة الخارجة","name":"الخارجة","status":"active","updatedAt":{"$date":"2026-05-02T21:15:09.185Z"}},{"_id":{"$oid":"69f6695dcb1d761d3bb103d6"},"normalizedName":"الفرافرة","__v":0,"coordinates":{"type":"Point","coordinates":[27.05,27.9667]},"createdAt":{"$date":"2026-05-02T21:15:09.185Z"},"location":"محطة الفرافرة","name":"الفرافرة","status":"active","updatedAt":{"$date":"2026-05-02T21:15:09.185Z"}},{"_id":{"$oid":"69f6695dcb1d761d3bb103d7"},"normalizedName":"الطور","__v":0,"coordinates":{"type":"Point","coordinates":[28.2333,33.6167]},"createdAt":{"$date":"2026-05-02T21:15:09.185Z"},"location":"محطة الطور","name":"الطور","status":"active","updatedAt":{"$date":"2026-05-02T21:15:09.185Z"}},{"_id":{"$oid":"69f6695dcb1d761d3bb103d8"},"normalizedName":"شرم الشيخ","__v":0,"coordinates":{"type":"Point","coordinates":[27.9158,34.33]},"createdAt":{"$date":"2026-05-02T21:15:09.185Z"},"location":"محطة شرم الشيخ","name":"شرم الشيخ","status":"active","updatedAt":{"$date":"2026-05-02T21:15:09.185Z"}},{"_id":{"$oid":"69f6695dcb1d761d3bb103d9"},"normalizedName":"الغردقة","__v":0,"coordinates":{"type":"Point","coordinates":[27.2574,33.8129]},"createdAt":{"$date":"2026-05-02T21:15:09.185Z"},"location":"محطة الغردقة","name":"الغردقة","status":"active","updatedAt":{"$date":"2026-05-02T21:15:09.185Z"}},{"_id":{"$oid":"69f6695dcb1d761d3bb103da"},"normalizedName":"سفاجا","__v":0,"coordinates":{"type":"Point","coordinates":[26.75,33.9333]},"createdAt":{"$date":"2026-05-02T21:15:09.185Z"},"location":"محطة سفاجا","name":"سفاجا","status":"active","updatedAt":{"$date":"2026-05-02T21:15:09.185Z"}}]
